zipcode,centile,superzip,rank,adultpop,households,college,income,primary_city,state,county,latitude,longitude
46290,0.9986157303946526,1,1,213,114,100,250001,Indianapolis,IN,Hamilton County,39.94,-86.16
10597,0.9984936339995485,1,2,726,353,94.2,250001,Waccabuc,NY,Westchester County,41.29,-73.6
02815,0.9983249857653524,1,3,155,87,100,214205,Clayville,RI,Providence County,41.77,-71.66
77010,0.9980510345672966,1,4,858,589,89,250001,Houston,TX,Harris County,29.75,-95.36
07078,0.9980205104685205,1,5,8643,4067,88.8,250001,Short Hills,NJ,Essex County,40.74,-74.33
10514,0.9979442002215806,1,6,8736,4046,88.5,250001,Chappaqua,NY,Westchester County,41.17,-73.77
98164,0.9979442002215806,1,7,127,85,88.5,250001,Seattle,WA,King County,47.61,-122.33
07846,0.9978752628929598,1,8,22,13,90.9,207969,Johnsonburg,NJ,Warren County,40.97,-74.88
02468,0.9978644529936597,1,9,4143,1924,89.7,212394,Waban,MA,Middlesex County,42.32,-71.23
60043,0.9977128476688866,1,10,1734,812,91,203750,Kenilworth,IL,Cook County,42.09,-87.71
07311,0.9972802924450067,1,11,403,222,90.7,189750,Jersey City,NJ,Hudson County,40.72,-74.03
60022,0.9971983901397826,1,12,6038,3068,86.6,204118,Glencoe,IL,Cook County,42.13,-87.76
20812,0.9971949531588018,1,13,229,100,89,192500,Glen Echo,MD,Montgomery County,38.97,-77.14
19066,0.9971742237902189,1,14,4362,1773,87.2,198828,Merion Station,PA,Montgomery County,40,-75.24
10282,0.9971353116040169,1,15,3967,2412,84.2,250001,New York,NY,New York County,40.72,-74.02
79326,0.9971003353551531,1,16,102,66,84.3,236000,Fieldton,TX,Lamb County,34.08,-102.22
10162,0.9970245240645704,1,17,955,655,89.7,182530,New York,NY,New York County,40.77,-73.95
20816,0.9969651319879642,1,18,11965,6079,87,192066,Bethesda,MD,Montgomery County,38.96,-77.12
94028,0.9969054904331796,1,19,5331,2641,83.4,244671,Portola Valley,CA,San Mateo County,37.37,-122.21
94024,0.9968822145136333,1,20,17402,7816,83.9,220970,Los Altos,CA,Santa Clara County,37.34,-122.11
94105,0.9967630388867607,1,21,6856,4404,85.2,199364,San Francisco,CA,San Francisco County,37.79,-122.39
06883,0.9967134415403478,1,22,7180,3448,83.2,219868,Weston,CT,Fairfield County,41.22,-73.37
33109,0.9965236724639086,1,23,431,264,88.4,177000,Miami Beach,FL,Miami-Dade County,25.76,-80.14
19437,0.9965185966183743,1,24,760,360,82.6,225598,Gwynedd Valley,PA,Montgomery County,40.18,-75.26
02481,0.9964552513480374,1,25,11557,4736,85.3,187819,Wellesley Hills,MA,Norfolk County,42.31,-71.27
07043,0.9963223450536334,1,26,9074,4133,84.4,191449,Montclair,NJ,Essex County,40.84,-74.2
40025,0.9962806368382895,1,27,36,19,81.8,250001,Glenview,KY,Jefferson County,38.3,-85.65
10504,0.9961874084210156,1,28,5787,2653,82.3,213234,Armonk,NY,Westchester County,41.13,-73.71
94022,0.9961676942215398,1,29,14899,7239,82.5,208984,Los Altos,CA,Santa Clara County,37.36,-122.14
02030,0.9961435278719761,1,30,4290,2011,82.7,204018,Dover,MA,Norfolk County,42.24,-71.27
07046,0.9961358882190858,1,31,2948,1404,86.1,175556,Mountain Lakes,NJ,Morris County,40.89,-74.44
20896,0.9961248288416071,1,32,669,323,83.7,191875,Garrett Park,MD,Montgomery County,39.04,-77.09
94129,0.995924641339528,1,33,2872,1284,83.1,190167,San Francisco,CA,San Francisco County,37.79,-122.46
08550,0.9959092545510508,1,34,14747,6557,82.5,200049,Princeton Junction,NJ,Mercer County,40.28,-74.61
02493,0.9957988584852646,1,35,8753,3764,82.4,196651,Weston,MA,Middlesex County,42.36,-71.3
10280,0.9957735349711123,1,36,7853,4747,89,161419,New York,NY,New York County,40.71,-74.02
02210,0.9957679429128281,1,37,2456,1543,85.6,170152,Boston,MA,Suffolk County,42.35,-71.04
02459,0.9957365283840345,1,38,15178,6680,85.5,169963,Newton Center,MA,Middlesex County,42.31,-71.19
07970,0.9957105984308283,1,39,168,51,80.7,233750,Mount Freedom,NJ,Morris County,40.81,-74.57
77005,0.9956015917514167,1,40,21407,10114,83.1,180758,Houston,TX,Harris County,29.72,-95.42
06820,0.9955715838653905,1,41,14671,6703,81,208848,Darien,CT,Fairfield County,41.05,-73.47
20854,0.9955474175158269,1,42,37207,16509,81.4,203952,Potomac,MD,Montgomery County,39.02,-77.19
60093,0.9955362161428662,1,43,13793,6906,84.2,173919,Winnetka,IL,Cook County,42.1,-87.74
22101,0.9954964135266466,1,44,21666,10457,82.2,190009,Mc Lean,VA,Fairfax County,38.94,-77.19
01741,0.9954950068838795,1,45,3963,1773,84.7,170703,Carlisle,MA,Middlesex County,42.53,-71.35
01718,0.9954503606439116,1,46,523,240,86.8,160750,Village Of Nagog Woods,MA,Middlesex County,42.52,-71.43
11724,0.9953713963633115,1,47,2489,1049,80.7,207656,Cold Spring Harbor,NY,Suffolk County,40.86,-73.44
10518,0.9953347639935018,1,48,1043,425,81.5,193472,Cross River,NY,Westchester County,41.26,-73.59
22066,0.9953075521366175,1,49,13420,5867,80.1,218638,Great Falls,VA,Fairfax County,39.01,-77.28
75225,0.9952911329226408,1,50,15973,8846,83.3,173828,Dallas,TX,Dallas County,32.86,-96.79
20817,0.9952729501050215,1,51,27862,13287,82.1,185135,Bethesda,MD,Montgomery County,38.98,-77.12
19085,0.9950744187238884,1,52,7447,1901,80.9,193375,Villanova,PA,Delaware County,40.03,-75.35
07021,0.9950366464458825,1,53,1515,728,80.6,198750,Essex Fells,NJ,Essex County,40.82,-74.28
20015,0.9950339578994373,1,54,11938,6437,86.6,158401,Washington,DC,District of Columbia,38.97,-77.06
01770,0.9950075117334813,1,55,3040,1480,82.9,170872,Sherborn,MA,Middlesex County,42.23,-71.36
10005,0.9949075340933349,1,56,7745,4239,88.5,154213,New York,NY,New York County,40.71,-74.01
94708,0.9949010516050332,1,57,9529,4855,85.4,159046,Berkeley,CA,Alameda County,37.9,-122.26
95837,0.9948999289532295,1,58,188,96,78.7,225000,Sacramento,CA,Sacramento County,38.69,-121.6
03750,0.99481902456072,1,59,593,250,82.7,168100,Etna,NH,Grafton County,43.71,-72.19
19035,0.9948050444150099,1,60,3001,1512,80.2,195862,Gladwyne,PA,Montgomery County,40.04,-75.28
02461,0.9947690357406467,1,61,5479,2683,84.6,159517,Newton Highlands,MA,Middlesex County,42.32,-71.21
94027,0.9946628596031624,1,62,5775,2399,78.2,250001,Atherton,CA,San Mateo County,37.45,-122.2
94563,0.9946005295019323,1,63,14641,6929,80.6,185066,Orinda,CA,Contra Costa County,37.89,-122.19
98039,0.9945583050738387,1,64,2326,1175,80.4,186484,Medina,WA,King County,47.62,-122.23
22213,0.9945318416514901,1,65,2516,1295,82.6,165341,Arlington,VA,Arlington County,38.9,-77.16
01778,0.9945201413221725,1,66,10197,5044,82.5,166548,Wayland,MA,Middlesex County,42.36,-71.36
94957,0.9944923057698417,1,67,959,432,78,243214,Ross,CA,Marin County,37.96,-122.56
10006,0.9944097279999938,1,68,3027,1815,93.2,145893,New York,NY,New York County,40.71,-74.01
20004,0.9941818124282807,1,69,1610,1163,93.5,144583,Washington,DC,District of Columbia,38.89,-77.03
22308,0.9940898831710774,1,70,9321,4478,80.4,175347,Alexandria,VA,Fairfax County,38.73,-77.06
10804,0.9940718250925473,1,71,11087,4975,79.6,179527,New Rochelle,NY,Westchester County,40.94,-73.78
06870,0.9940237591279911,1,72,5137,2506,77.3,217361,Old Greenwich,CT,Fairfield County,41.03,-73.56
90272,0.9940152290450832,1,73,17171,9094,79.3,180962,Pacific Palisades,CA,Los Angeles County,34.07,-118.54
10007,0.9940030297594085,1,74,5662,2761,76.8,242644,New York,NY,New York County,40.71,-74.01
22205,0.9938904613599266,1,75,13799,6690,79.2,180405,Arlington,VA,Arlington County,38.88,-77.14
02421,0.9938767134360027,1,76,13724,6697,82.4,158554,Lexington,MA,Middlesex County,42.44,-71.23
08558,0.9938497683136895,1,77,5415,2579,77.9,201964,Skillman,NJ,Somerset County,40.41,-74.7
02420,0.9938413629698709,1,78,10922,5058,80.6,168065,Lexington,MA,Middlesex County,42.46,-71.22
10506,0.993765194718413,1,79,4124,1997,76.7,217607,Bedford,NY,Westchester County,41.19,-73.64
22039,0.993702490399915,1,80,13809,5884,77.2,204063,Fairfax Station,VA,Fairfax County,38.76,-77.31
10583,0.993701849448076,1,81,29120,13677,78.4,186053,Scarsdale,NY,Westchester County,40.98,-73.77
10538,0.9936322711676162,1,82,11906,5898,80.5,165735,Larchmont,NY,Westchester County,40.92,-73.75
20839,0.9936283352302779,1,83,42,23,78.6,178661,Beallsville,MD,Montgomery County,39.19,-77.43
22207,0.9936203213601198,1,84,24766,11804,78.9,176183,Arlington,VA,Arlington County,38.91,-77.12
20815,0.9935682849454404,1,85,23968,12953,84,150313,Chevy Chase,MD,Montgomery County,38.98,-77.08
77401,0.9935629596217275,1,86,14025,7011,79.3,172205,Bellaire,TX,Harris County,29.7,-95.46
07423,0.993515267874439,1,87,2974,1449,78.6,176518,Ho Ho Kus,NJ,Bergen County,41,-74.1
60603,0.9934208650361842,1,88,1139,563,95.1,140114,Chicago,IL,Cook County,41.88,-87.63
45174,0.9933200314788051,1,89,1588,798,80.7,159605,Terrace Park,OH,Hamilton County,39.16,-84.31
60045,0.9933141899423426,1,90,15634,7317,78.4,176108,Lake Forest,IL,Lake County,42.23,-87.85
60606,0.9932746022915165,1,91,2772,1979,95.4,139179,Chicago,IL,Cook County,41.88,-87.64
60521,0.9932722149924273,1,92,12622,5913,79.3,166936,Hinsdale,IL,DuPage County,41.8,-87.92
10004,0.9932592155030391,1,93,2572,1587,90.5,140450,New York,NY,New York County,40.69,-74.02
07310,0.9931689251103892,1,94,11786,5796,83.7,147357,Jersey City,NJ,Hudson County,40.73,-74.04
01773,0.9931309033542048,1,95,3791,2008,81.8,153500,Lincoln,MA,Middlesex County,42.41,-71.3
01776,0.9931159080393879,1,96,13180,6226,78.5,170945,Sudbury,MA,Middlesex County,42.36,-71.4
02482,0.9930228043612034,1,97,8224,3922,79.5,160644,Wellesley,MA,Norfolk County,42.29,-71.3
04575,0.9930035718616921,1,98,65,34,93.3,138333,West Boothbay Harbor,ME,Lincoln County,43.85,-69.65
22182,0.9929990294853002,1,99,19727,8888,77.6,177853,Vienna,VA,Fairfax County,38.94,-77.27
94707,0.9929950590351766,1,100,9821,4896,85.4,143297,Berkeley,CA,Alameda County,37.9,-122.28
22027,0.9929491826607089,1,101,1825,658,75.6,211316,Dunn Loring,VA,Fairfax County,38.89,-77.22
55424,0.9928780729983924,1,102,6937,3483,78.4,167527,Minneapolis,MN,Hennepin County,44.91,-93.34
20016,0.9928480305995808,1,103,28634,13757,86.9,140545,Washington,DC,District of Columbia,38.94,-77.09
30327,0.992840283463994,1,104,17630,9333,82.5,148480,Atlanta,GA,Fulton County,33.86,-84.42
22124,0.9928368637394054,1,105,13829,6707,78.6,164955,Oakton,VA,Fairfax County,38.89,-77.3
94301,0.9927066114786616,1,106,13544,7098,82.6,146488,Palo Alto,CA,Santa Clara County,37.44,-122.15
06840,0.9926543600985887,1,107,14337,7042,77.1,174677,New Canaan,CT,Fairfield County,41.14,-73.49
95070,0.9926346458991128,1,108,24570,11043,77.3,173739,Saratoga,CA,Santa Clara County,37.25,-122.06
15142,0.9926151811778154,1,109,878,514,78.5,161750,Presto,PA,Allegheny County,40.38,-80.12
06897,0.992578815542577,1,110,13228,5985,76.5,180677,Wilton,CT,Fairfield County,41.18,-73.42
08502,0.9925688960732943,1,111,8299,3635,76.3,182837,Belle Mead,NJ,Somerset County,40.46,-74.64
60091,0.9925036279474406,1,112,19381,9600,81.7,148462,Wilmette,IL,Cook County,42.07,-87.72
06880,0.9923750663204276,1,113,20424,9962,76.3,178421,Westport,CT,Fairfield County,41.12,-73.34
22301,0.9923188272338388,1,114,10186,5555,82,145893,Alexandria,VA,Alexandria city,38.82,-77.06
90077,0.9921577111698363,1,115,7082,3370,75.6,184722,Los Angeles,CA,Los Angeles County,34.1,-118.45
10576,0.9921476669614644,1,116,4034,1974,75,195167,Pound Ridge,NY,Westchester County,41.21,-73.57
06890,0.9921325296511657,1,117,3236,1633,75.5,186488,Southport,CT,Fairfield County,41.14,-73.28
21029,0.9921092537316196,1,118,8209,3450,75.6,182045,Clarksville,MD,Howard County,39.2,-76.94
07670,0.9920652311870981,1,119,10264,4683,79.2,153906,Tenafly,NJ,Bergen County,40.91,-73.95
21056,0.9919874068146941,1,120,219,109,76.3,170966,Gibson Island,MD,Anne Arundel County,39.07,-76.42
11568,0.9919397150674059,1,121,3869,1044,75.8,175833,Old Westbury,NY,Nassau County,40.78,-73.59
11765,0.9918889778127968,1,122,579,247,74,206250,Mill Neck,NY,Nassau County,40.88,-73.55
07928,0.991797904472826,1,123,13465,6410,75.7,173929,Chatham,NJ,Morris County,40.74,-74.38
20148,0.9917477909136634,1,124,30271,14185,76.2,167083,Ashburn,VA,Loudoun County,39,-77.52
95030,0.9916765737686504,1,125,10304,5098,75.1,180222,Los Gatos,CA,Santa Clara County,37.22,-121.99
11109,0.9916418124851796,1,126,4681,2891,85.3,137452,Long Island City,NY,Queens County,40.75,-73.96
89450,0.9915558322471356,1,127,84,45,86.9,135469,Incline Village,NV,Washoe County,39.24,-119.94
10069,0.9915152639399878,1,128,4077,2574,85.1,137105,New York,NY,New York County,40.78,-73.99
22181,0.9914752291019826,1,129,11310,5283,77.1,158172,Vienna,VA,Fairfax County,38.91,-77.29
07450,0.9914265221855874,1,130,17808,8359,76.1,162201,Ridgewood,NJ,Bergen County,40.98,-74.11
21794,0.9913719737327296,1,131,1866,864,73.4,196618,West Friendship,MD,Howard County,39.3,-76.95
60029,0.9912764482426709,1,132,344,149,75.5,167813,Golf,IL,Cook County,42.06,-87.78
21737,0.9912652641261028,1,133,1543,656,73.8,187391,Glenelg,MD,Howard County,39.25,-77.03
10580,0.9912142601369227,1,134,12257,5954,74.4,178333,Rye,NY,Westchester County,40.98,-73.69
60558,0.991175704911596,1,135,9000,4376,78.1,150880,Western Springs,IL,Cook County,41.8,-87.9
66224,0.9911646455341174,1,136,9131,4491,76.7,156180,Overland Park,KS,Johnson County,38.86,-94.63
21738,0.9911458390210517,1,137,2597,1114,73.4,189833,Glenwood,MD,Howard County,39.28,-77.02
63005,0.9911123768976519,1,138,13080,6337,75.9,160354,Chesterfield,MO,St. Louis County,38.65,-90.58
94920,0.9910433148299418,1,139,9987,5394,76,159423,Belvedere Tiburon,CA,Marin County,37.89,-122.47
92657,0.9910153545385217,1,140,8074,3912,72.6,215000,Newport Coast,CA,Orange County,33.6,-117.82
30573,0.9910023205363478,1,141,232,81,89.6,132250,Tallulah Falls,GA,Rabun County,34.75,-83.42
20861,0.9909999677500445,1,142,1490,551,72.2,250001,Ashton,MD,Montgomery County,39.15,-76.98
90094,0.9909982598599204,1,143,6891,3874,84.1,136250,Playa Vista,CA,Los Angeles County,33.98,-118.42
63124,0.9909064553418069,1,144,8261,4644,78,149423,Saint Louis,MO,St. Louis County,38.64,-90.38
95014,0.9908525305843955,1,145,46021,21489,77.5,150529,Cupertino,CA,Santa Clara County,37.3,-122.09
10546,0.9908497518116461,1,146,1096,480,73.7,178611,Millwood,NY,Westchester County,41.2,-73.8
91011,0.990545900210261,1,147,15309,6590,75.1,160288,La Canada Flintridge,CA,Los Angeles County,34.22,-118.21
11753,0.9904748078043372,1,148,9585,4253,74.3,166272,Jericho,NY,Nassau County,40.78,-73.54
92130,0.9904176782877305,1,149,38830,19126,79.2,141926,San Diego,CA,San Diego County,32.95,-117.19
02492,0.9903158123048523,1,150,14802,7063,77,147375,Needham,MA,Norfolk County,42.28,-71.24
10577,0.9903106289766215,1,151,5638,790,71.8,213173,Purchase,NY,Westchester County,41.03,-73.71
94123,0.9902478728889454,1,152,22624,13951,82.7,134809,San Francisco,CA,San Francisco County,37.8,-122.43
01451,0.9902209277666325,1,153,3410,1645,78.2,143625,Harvard,MA,Worcester County,42.5,-71.58
06877,0.9902033859008526,1,154,18087,9104,76,151250,Ridgefield,CT,Fairfield County,41.27,-73.49
63131,0.9901472888097453,1,155,13190,6331,78,144159,Saint Louis,MO,St. Louis County,38.62,-90.44
07945,0.9900814315012304,1,156,6660,3090,73.1,171571,Mendham,NJ,Morris County,40.76,-74.59
06903,0.9900521893061325,1,157,11355,4935,71.8,203861,Stamford,CT,Fairfield County,41.14,-73.57
94507,0.9900198843473214,1,158,12059,5455,71.8,202336,Alamo,CA,Contra Costa County,37.85,-122.02
94114,0.9900090399352357,1,159,30741,17000,77.7,143902,San Francisco,CA,San Francisco County,37.75,-122.43
98074,0.9899542420041996,1,160,18973,9067,73.9,160618,Sammamish,WA,King County,47.62,-122.02
20197,0.9899452129649347,1,161,1391,654,73.7,162188,Waterford,VA,Loudoun County,39.2,-77.63
04110,0.9899317317755818,1,162,1094,557,73.5,162227,Cumberland Foreside,ME,Cumberland County,43.75,-70.2
80025,0.9899122152851063,1,163,351,109,96.2,126806,Eldorado Springs,CO,Boulder County,39.94,-105.28
01890,0.9899034874931981,1,164,16268,7928,75.5,152196,Winchester,MA,Middlesex County,42.45,-71.14
80238,0.9898330015263277,1,165,11244,6281,81.2,135819,Denver,CO,Denver County,39.76,-104.87
20818,0.9897400398436251,1,166,1522,793,78.5,139904,Cabin John,MD,Montgomery County,38.97,-77.16
06878,0.9897235476597371,1,167,5598,2562,71.3,207500,Riverside,CT,Fairfield County,41.03,-73.58
78746,0.989699204801906,1,168,21056,10848,80.8,136138,Austin,TX,Travis County,30.3,-97.81
10022,0.989600758543616,1,169,28198,17873,82.2,133208,New York,NY,New York County,40.76,-73.97
07677,0.9894999422426302,1,170,4436,2053,73.1,161250,Woodcliff Lake,NJ,Bergen County,41.02,-74.05
66221,0.9894727131293534,1,171,11681,5688,75.3,149461,Overland Park,KS,Johnson County,38.86,-94.71
07452,0.9894137125264076,1,172,8551,3901,72.9,162443,Glen Rock,NJ,Bergen County,40.96,-74.13
94065,0.9892037302941353,1,173,9836,5160,72.9,160313,Redwood City,CA,San Mateo County,37.53,-122.24
66206,0.989185263485552,1,174,7756,4046,77.7,139286,Leawood,KS,Johnson County,38.96,-94.62
08540,0.9891794046926967,1,175,38184,17643,79.4,135975,Princeton,NJ,Mercer County,40.35,-74.65
90266,0.9891791724709111,1,176,26764,13529,74.9,148899,Manhattan Beach,CA,Los Angeles County,33.88,-118.4
11030,0.9891475257203316,1,177,13532,6206,71.5,182000,Manhasset,NY,Nassau County,40.79,-73.69
10014,0.9891408494673698,1,178,28781,18481,85.1,127973,New York,NY,New York County,40.73,-74.01
10510,0.9890869764791368,1,179,8107,3578,72.7,160944,Briarcliff Manor,NY,Westchester County,41.13,-73.84
07704,0.9890799777780855,1,180,3918,1889,73.1,158264,Fair Haven,NJ,Monmouth County,40.36,-74.03
95604,0.9889151234857453,1,181,106,60,77.4,138654,Auburn,CA,Placer County,39.24,-120.07
75205,0.9889072170982836,1,182,18684,9061,82.7,129406,Dallas,TX,Dallas County,32.84,-96.8
78739,0.9889000034318395,1,183,13502,6367,74.6,147736,Austin,TX,Travis County,30.18,-97.89
07028,0.9886840721804079,1,184,5269,2490,70.3,195714,Glen Ridge,NJ,Essex County,40.8,-74.2
28207,0.9886709134391446,1,185,7617,3819,81.1,131164,Charlotte,NC,Mecklenburg County,35.19,-80.83
98040,0.9886702897436983,1,186,18847,9867,78.2,136644,Mercer Island,WA,King County,47.56,-122.22
21071,0.9886615446953975,1,187,365,172,72.5,159318,Glyndon,MD,Baltimore County,39.47,-76.81
94582,0.9885892951248849,1,188,27534,13143,73.6,149859,San Ramon,CA,Contra Costa County,37.76,-121.93
20194,0.9885086229541606,1,189,10036,5558,81.9,129365,Reston,VA,Fairfax County,38.98,-77.34
19096,0.9884861127255429,1,190,10140,5322,81.5,130192,Wynnewood,PA,Montgomery County,39.99,-75.27
91108,0.9884401116119861,1,191,10442,4684,73,152553,San Marino,CA,Los Angeles County,34.12,-118.11
33158,0.9884247248235087,1,192,4807,2046,72.7,154868,Miami,FL,Miami-Dade County,25.64,-80.31
98075,0.9884081981268353,1,193,16722,7740,71.7,163409,Sammamish,WA,King County,47.58,-122.03
94506,0.9882999743947447,1,194,17744,8221,70.2,186378,Danville,CA,Contra Costa County,37.78,-121.88
11576,0.9882989419692454,1,195,9518,4662,72.3,158125,Roslyn,NY,Nassau County,40.8,-73.65
77094,0.9882540462510989,1,196,6718,3167,72.2,158160,Houston,TX,Harris County,29.77,-95.68
94539,0.988198215894563,1,197,39333,16274,71.7,160542,Fremont,CA,Alameda County,37.51,-121.89
02108,0.9880997178670946,1,198,3644,1888,83.6,126224,Boston,MA,Suffolk County,42.36,-71.06
02052,0.9880962079162028,1,199,8801,4189,72.5,153847,Medfield,MA,Norfolk County,42.18,-71.3
48301,0.9879974949233415,1,200,11025,5512,75.5,139673,Bloomfield Hills,MI,Oakland County,42.54,-83.28
78732,0.987812319992472,1,201,11372,5689,74.2,142612,Austin,TX,Travis County,30.38,-97.9
94618,0.9877980558557977,1,202,13571,7054,78.2,133125,Oakland,CA,Alameda County,37.84,-122.23
19435,0.9877855725791591,1,203,112,43,83,125924,Frederick,PA,Montgomery County,40.33,-75.57
01810,0.9876677133687501,1,204,26343,12369,73.7,143292,Andover,MA,Essex County,42.65,-71.14
76092,0.9876012323647889,1,205,20203,9154,68.8,207127,Southlake,TX,Tarrant County,32.95,-97.14
07931,0.9876005914129498,1,206,2357,1084,69.3,186571,Far Hills,NJ,Somerset County,40.69,-74.62
60015,0.9875439608527004,1,207,20308,9612,74,141268,Deerfield,IL,Lake County,42.16,-87.84
20007,0.9875392074552556,1,208,23559,11885,86.6,123154,Washington,DC,District of Columbia,38.91,-77.08
07401,0.9875369794080419,1,209,4908,2279,72,151875,Allendale,NJ,Bergen County,41.03,-74.13
07090,0.987506081091998,1,210,21745,10591,71,159923,Westfield,NJ,Union County,40.65,-74.34
44040,0.987404197852727,1,211,2588,1181,72.1,150625,Gates Mills,OH,Cuyahoga County,41.53,-81.41
94556,0.9873896842378745,1,212,12324,5747,74.3,139904,Moraga,CA,Contra Costa County,37.83,-122.1
10075,0.9871071857005181,1,213,19099,11373,78.5,129594,New York,NY,New York County,40.77,-73.95
94549,0.9870538116686423,1,214,22306,10987,71,155225,Lafayette,CA,Contra Costa County,37.9,-122.11
02142,0.9870145637222979,1,215,2719,1326,91.8,120729,Cambridge,MA,Middlesex County,42.36,-71.08
20171,0.9869863884654853,1,216,36978,16795,73,142349,Herndon,VA,Fairfax County,38.92,-77.4
13087,0.9869778756389702,1,217,141,78,71.9,147907,Little York,NY,Cortland County,42.71,-76.15
02025,0.986903079517494,1,218,6165,3046,73.3,140000,Cohasset,MA,Norfolk County,42.23,-70.8
10021,0.9868675525430948,1,219,38098,24912,82.8,123842,New York,NY,New York County,40.77,-73.96
01720,0.9867746081167849,1,220,17040,8476,76.1,133075,Acton,MA,Middlesex County,42.48,-71.46
20124,0.9867245463268006,1,221,12384,5011,68.9,176829,Clifton,VA,Fairfax County,38.77,-77.38
94117,0.9867082173391275,1,222,39692,18262,76.2,132979,San Francisco,CA,San Francisco County,37.77,-122.45
10065,0.9866331544830802,1,223,25441,15878,82,124322,New York,NY,New York County,40.76,-73.96
06060,0.9865909645677721,1,224,1773,781,74,137464,North Granby,CT,Hartford County,42.01,-72.84
20008,0.9865603886998175,1,225,25820,15611,89.6,120342,Washington,DC,District of Columbia,38.94,-77.06
06092,0.9865572702225864,1,226,3069,1451,72.6,142111,West Simsbury,CT,Hartford County,41.87,-72.84
19425,0.9865226854473831,1,227,10505,5096,71.4,148730,Chester Springs,PA,Chester County,40.1,-75.64
10533,0.9865177170845454,1,228,5346,2549,72.4,142869,Irvington,NY,Westchester County,41.03,-73.86
10024,0.9865097934406908,1,229,49057,28418,79.8,126107,New York,NY,New York County,40.8,-73.97
21042,0.9864955983295881,1,230,30111,13715,70.8,151354,Ellicott City,MD,Howard County,39.27,-76.83
95120,0.9864499541769061,1,231,28582,12683,68.9,171908,San Jose,CA,Santa Clara County,37.19,-121.83
48070,0.9863644211260407,1,232,4593,2447,79.8,125873,Huntington Woods,MI,Oakland County,42.48,-83.16
07030,0.9862958752710804,1,233,46783,24812,78.2,127523,Hoboken,NJ,Hudson County,40.75,-74.03
10536,0.9862884293828504,1,234,8196,3519,68.9,168490,Katonah,NY,Westchester County,41.26,-73.68
73151,0.9862533283948973,1,235,1326,572,68.6,172500,Oklahoma City,OK,Oklahoma County,35.57,-97.42
10023,0.986230998618887,1,236,52999,33133,81.2,123951,New York,NY,New York County,40.78,-73.98
19312,0.9862059418393057,1,237,8707,4364,81.6,123587,Berwyn,PA,Chester County,40.03,-75.44
19087,0.986189432399025,1,238,25095,11942,75.8,131623,Wayne,PA,Chester County,40.06,-75.4
12433,0.9861626120158015,1,239,463,236,73,138134,Glenford,NY,Ulster County,42,-74.15
20152,0.9859901698397493,1,240,22009,9937,70.2,151230,Chantilly,VA,Loudoun County,38.92,-77.5
64113,0.9858870949231037,1,241,9255,4913,80.3,124462,Kansas City,MO,Jackson County,39.01,-94.6
90274,0.9858785091266776,1,242,19670,9175,69.2,158497,Palos Verdes Peninsula,CA,Los Angeles County,33.77,-118.34
66220,0.9858323142484604,1,243,5180,2661,72.8,137651,Lenexa,KS,Johnson County,38.96,-94.82
21652,0.9857329603037599,1,244,125,75,76.8,127639,Neavitt,MD,Talbot County,38.72,-76.28
07920,0.9857239485208877,1,245,19695,9640,73.3,135365,Basking Ridge,NJ,Somerset County,40.67,-74.56
22201,0.9857101660841778,1,246,33078,18605,84.4,120493,Arlington,VA,Arlington County,38.89,-77.1
90402,0.9856695248071194,1,247,9317,4967,71.9,140179,Santa Monica,CA,Los Angeles County,34.03,-118.5
02067,0.9856496686121614,1,248,13143,6220,74.1,133229,Sharon,MA,Norfolk County,42.11,-71.18
60564,0.9856208178907242,1,249,29431,13138,71.3,143084,Naperville,IL,Will County,41.71,-88.19
02090,0.9855747822643818,1,250,11428,5528,70.5,146042,Westwood,MA,Norfolk County,42.21,-71.21
07641,0.9855585223022797,1,251,2589,1127,68.1,170417,Haworth,NJ,Bergen County,40.96,-73.99
94941,0.9855446151264806,1,252,24272,13182,73.9,133462,Mill Valley,CA,Marin County,37.89,-122.56
94127,0.985485631779928,1,253,16841,7548,69.7,151094,San Francisco,CA,San Francisco County,37.74,-122.46
19807,0.9854396691234962,1,254,5643,3017,77.6,126031,Wilmington,DE,New Castle County,39.8,-75.61
78733,0.9853719062158572,1,255,6001,2920,72.7,136563,Austin,TX,Travis County,30.32,-97.88
94306,0.9852117535517833,1,256,21213,10783,77.7,125553,Palo Alto,CA,Santa Clara County,37.41,-122.13
07039,0.9851479610942677,1,257,22424,9931,69,153381,Livingston,NJ,Essex County,40.78,-74.32
02465,0.9850782408183258,1,258,8950,4296,72.1,137438,West Newton,MA,Middlesex County,42.35,-71.22
92014,0.9850055997741526,1,259,11498,6104,75.1,128679,Del Mar,CA,San Diego County,32.96,-117.25
20814,0.9849676682442716,1,260,23500,12925,82.1,120632,Bethesda,MD,Montgomery County,39,-77.1
02109,0.9849264934980706,1,261,3777,1943,74.6,129716,Boston,MA,Suffolk County,42.37,-71.05
95134,0.984906405081327,1,262,20034,10159,73.2,132891,San Jose,CA,Santa Clara County,37.42,-121.94
60035,0.9848942057956522,1,263,22214,11497,71.9,137413,Highland Park,IL,Lake County,42.18,-87.8
38139,0.9848509661984517,1,264,11616,5557,71.5,138244,Germantown,TN,Shelby County,35.08,-89.76
35223,0.9848444319409718,1,265,8111,4081,80.6,121738,Birmingham,AL,Jefferson County,33.49,-86.73
94107,0.9848020098038781,1,266,26265,14123,70.1,143467,San Francisco,CA,San Francisco County,37.76,-122.39
27519,0.9847554234520002,1,267,36399,18210,75.7,126832,Cary,NC,Wake County,35.81,-78.88
10028,0.9846825156732555,1,268,43278,26435,83.1,119203,New York,NY,New York County,40.78,-73.95
10011,0.9846106748327964,1,269,45856,28753,78.3,123208,New York,NY,New York County,40.74,-74
07924,0.9845924190452664,1,270,5795,2724,68.9,150246,Bernardsville,NJ,Somerset County,40.73,-74.59
55439,0.9845660458492212,1,271,6738,3489,75.6,126572,Minneapolis,MN,Hennepin County,44.88,-93.37
94087,0.9845359304804986,1,272,42574,20253,71.4,137652,Sunnyvale,CA,Santa Clara County,37.35,-122.03
33149,0.9845109811836138,1,273,9456,4602,74.4,128563,Key Biscayne,FL,Miami-Dade County,25.68,-80.16
07627,0.984495504168833,1,274,3721,1661,68.9,149271,Demarest,NJ,Bergen County,40.95,-73.95
01742,0.9844551680834708,1,275,14920,6741,71.4,137547,Concord,MA,Middlesex County,42.45,-71.35
14722,0.9844175762580725,1,276,340,118,91.3,115673,Chautauqua,NY,Chautauqua County,42.21,-79.47
37350,0.9843716998836047,1,277,1442,749,77,124028,Lookout Mountain,TN,Hamilton County,34.99,-85.35
92603,0.9843203044207638,1,278,15036,7816,80.3,120915,Irvine,CA,Orange County,33.62,-117.79
07458,0.9841740032189711,1,279,8535,3714,66.5,176455,Saddle River,NJ,Bergen County,41.02,-74.09
01748,0.9841461331538552,1,280,12028,5614,68.2,151357,Hopkinton,MA,Middlesex County,42.22,-71.52
91436,0.9841187965578817,1,281,11550,5519,67.5,159965,Encino,CA,Los Angeles County,34.15,-118.49
10706,0.9840992973237985,1,282,6777,3301,72.3,132981,Hastings On Hudson,NY,Westchester County,40.98,-73.87
11962,0.9840722831759143,1,283,217,123,82.9,118250,Sagaponack,NY,Suffolk County,40.92,-72.27
10017,0.9840048772291501,1,284,15193,10076,82.5,118469,New York,NY,New York County,40.75,-73.97
22314,0.9839806033968901,1,285,28651,17096,77.9,122689,Alexandria,VA,Alexandria city,38.81,-77.06
94025,0.9839692043149293,1,286,31226,14726,69.9,139833,Menlo Park,CA,San Mateo County,37.45,-122.17
06853,0.9839615646620389,1,287,2758,1445,71.2,136189,Norwalk,CT,Fairfield County,41.07,-73.44
10527,0.9839572717638261,1,288,575,251,67.5,158977,Granite Springs,NY,Westchester County,41.32,-73.77
06073,0.9839570222856475,1,289,4438,2168,66.8,166250,South Glastonbury,CT,Hartford County,41.65,-72.56
29482,0.9839360818960112,1,290,1604,769,79.3,120850,Sullivans Island,SC,Charleston County,32.76,-79.85
11530,0.9838731971249065,1,291,21547,9321,68,151809,Garden City,NY,Nassau County,40.72,-73.64
01775,0.9837775468957584,1,292,5269,2627,68.7,144766,Stow,MA,Middlesex County,42.43,-71.5
75022,0.9837032842434249,1,293,16975,7587,67.4,156902,Flower Mound,TX,Denton County,33.02,-97.09
94158,0.9835371480474063,1,294,5796,3497,71.3,133981,San Francisco,CA,San Francisco County,37.77,-122.39
07417,0.983513906640646,1,295,8419,3853,67.3,155458,Franklin Lakes,NJ,Bergen County,41,-74.2
90049,0.9834385425372415,1,296,30207,16514,77.5,121671,Los Angeles,CA,Los Angeles County,34.08,-118.49
20777,0.9833815165589916,1,297,2682,1132,66.3,166719,Highland,MD,Howard County,39.17,-76.95
01772,0.9833350722025959,1,298,6965,3246,68.5,143375,Southborough,MA,Worcester County,42.3,-71.51
02467,0.9832298249522542,1,299,18352,6181,79.2,119964,Chestnut Hill,MA,Norfolk County,42.31,-71.16
01740,0.9831702524230413,1,300,3725,1686,67.4,151618,Bolton,MA,Worcester County,42.43,-71.6
07946,0.9831450709043708,1,301,2460,1143,67.2,152750,Millington,NJ,Morris County,40.66,-74.51
93108,0.983119605394736,1,302,9264,4166,70.5,134667,Santa Barbara,CA,Santa Barbara County,34.44,-119.61
10502,0.983107939578204,1,303,4324,1948,66.5,159444,Ardsley,NY,Westchester County,41.01,-73.84
60604,0.9831026181988307,1,304,641,400,85.8,114565,Chicago,IL,Cook County,41.88,-87.63
20895,0.9830808179476234,1,305,14862,7024,69.9,136433,Kensington,MD,Montgomery County,39.02,-77.07
60602,0.9830789680620169,1,306,1122,596,83.4,115774,Chicago,IL,Cook County,41.88,-87.63
83025,0.9830481042587589,1,307,342,105,73.7,125697,Teton Village,WY,Teton County,43.59,-110.85
07760,0.9829996813333277,1,308,6224,3166,69,138917,Rumson,NJ,Monmouth County,40.36,-74
11545,0.9829073606024645,1,309,9779,4369,67.5,149174,Glen Head,NY,Nassau County,40.84,-73.61
92067,0.9828965161903784,1,310,7235,2994,71.5,130769,Rancho Santa Fe,CA,San Diego County,33.02,-117.19
01886,0.9828462951485195,1,311,17427,8244,69.1,138006,Westford,MA,Middlesex County,42.58,-71.43
07930,0.9828381565392721,1,312,6366,2965,69,138328,Chester,NJ,Morris County,40.78,-74.69
20105,0.9828287532827396,1,313,12011,5675,68.1,143204,Aldie,VA,Loudoun County,38.97,-77.64
11791,0.9827773923326844,1,314,19302,8275,65.9,163801,Syosset,NY,Nassau County,40.81,-73.5
90254,0.9827690599587764,1,315,16228,9158,73.8,124849,Hermosa Beach,CA,Los Angeles County,33.86,-118.39
76034,0.9827324966145379,1,316,19370,8854,65.8,164682,Colleyville,TX,Tarrant County,32.89,-97.14
94070,0.9826746186633958,1,317,23343,11626,66.7,153291,San Carlos,CA,San Mateo County,37.49,-122.26
08534,0.9826341233261586,1,318,9885,4885,72.8,126108,Pennington,NJ,Mercer County,40.32,-74.79
11797,0.9824980985545233,1,319,7100,3022,65.5,166949,Woodbury,NY,Nassau County,40.81,-73.47
07974,0.9824217710511908,1,320,8913,4151,67.1,146776,New Providence,NJ,Union County,40.7,-74.4
95129,0.9823765913420799,1,321,30520,13959,70.5,131976,San Jose,CA,Santa Clara County,37.3,-122
08836,0.9821872482520869,1,322,2986,1327,66.5,150994,Martinsville,NJ,Somerset County,40.6,-74.56
22180,0.9821573478487571,1,323,18527,8482,67.9,141328,Vienna,VA,Fairfax County,38.9,-77.26
46077,0.9820878770509935,1,324,19206,9766,71.2,128642,Zionsville,IN,Boone County,39.95,-86.27
94705,0.9820401335345266,1,325,11452,5782,80.4,116250,Berkeley,CA,Alameda County,37.86,-122.24
06824,0.9819015794683208,1,326,26410,11507,67.8,140313,Fairfield,CT,Fairfield County,41.13,-73.28
19072,0.9818161711565443,1,327,7075,3996,77.9,118333,Narberth,PA,Montgomery County,40.02,-75.26
07922,0.9817188263493256,1,328,9389,4072,66.5,146674,Berkeley Heights,NJ,Union County,40.67,-74.42
77007,0.9816897646068348,1,329,31926,19082,74.8,121458,Houston,TX,Harris County,29.77,-95.41
85253,0.9816165516363938,1,330,14934,7385,68.3,136558,Paradise Valley,AZ,Maricopa County,33.54,-111.96
20841,0.9815635518217856,1,331,7753,2870,64.7,166646,Boyds,MD,Montgomery County,39.18,-77.31
94404,0.9815234479582091,1,332,29012,14448,68.9,134056,San Mateo,CA,San Mateo County,37.55,-122.26
48306,0.9815065470442683,1,333,20501,9706,67.4,140372,Rochester,MI,Oakland County,42.72,-83.15
06525,0.9814789437137235,1,334,6821,2876,67.9,138320,Woodbridge,CT,New Haven County,41.36,-73
06107,0.9814220464189023,1,335,14311,7292,73.4,122393,West Hartford,CT,Hartford County,41.75,-72.74
37027,0.9813589851395295,1,336,39513,18844,70.5,128020,Brentwood,TN,Williamson County,35.99,-86.78
67228,0.9812892821199801,1,337,1588,739,71.4,126065,Wichita,KS,Sedgwick County,37.77,-97.17
07901,0.9812539316538487,1,338,16922,8301,70.3,128097,Summit,NJ,Union County,40.71,-74.36
94960,0.9812520087983316,1,339,12287,6412,72.4,123861,San Anselmo,CA,Marin County,37.99,-122.58
92694,0.9812183662223244,1,340,17017,8030,65.3,154384,Ladera Ranch,CA,Orange County,33.55,-117.62
11790,0.9811417719844202,1,341,15360,4529,68.2,135197,Stony Brook,NY,Suffolk County,40.9,-73.12
46033,0.9811145256147503,1,342,27402,13415,71.9,124712,Carmel,IN,Hamilton County,39.96,-86.1
89823,0.9810998354916298,1,343,116,59,87.5,110580,Deeth,NV,Elko County,41.01,-115.28
22102,0.9810485992806641,1,344,19716,10400,80.6,114310,Mc Lean,VA,Fairfax County,38.95,-77.23
77024,0.9809883340304333,1,345,28458,15252,75.8,118561,Houston,TX,Harris County,29.77,-95.51
77059,0.9809606404735849,1,346,13033,5889,70.7,126385,Houston,TX,Harris County,29.61,-95.12
06807,0.9809496156088922,1,347,5297,2560,66.2,144583,Cos Cob,CT,Fairfield County,41.06,-73.59
95054,0.9809463033670005,1,348,19411,8412,66.7,140890,Santa Clara,CA,Santa Clara County,37.39,-121.96
92625,0.9808683369991146,1,349,10517,5808,66.9,139561,Corona Del Mar,CA,Orange County,33.6,-117.86
92127,0.9808446523495149,1,350,31350,14937,70.1,127227,San Diego,CA,San Diego County,33.02,-117.12
94611,0.9807221472243575,1,351,31917,17244,73.7,120601,Oakland,CA,Alameda County,37.83,-122.22
22032,0.9806932062766169,1,352,24042,9798,66.6,140139,Fairfax,VA,Fairfax County,38.82,-77.29
48374,0.9805892926991321,1,353,10975,4934,67,138068,Novi,MI,Oakland County,42.47,-83.52
22046,0.9805868363744722,1,354,13788,6620,71.8,123523,Falls Church,VA,Falls Church city,38.88,-77.17
55347,0.9805353506853278,1,355,22710,11498,68.6,131004,Eden Prairie,MN,Hennepin County,44.84,-93.45
07934,0.9805336043380785,1,356,1222,574,65.1,150250,Gladstone,NJ,Somerset County,40.72,-74.67
07733,0.9805182175496012,1,357,12907,5772,64.9,152294,Holmdel,NJ,Monmouth County,40.37,-74.17
60048,0.9804718806759016,1,358,21990,10368,69.1,128657,Libertyville,IL,Lake County,42.28,-87.96
48302,0.9804707235113126,1,359,12300,6265,70.8,125132,Bloomfield Hills,MI,Oakland County,42.59,-83.29
30005,0.9803876812978927,1,360,28362,12823,69.5,127340,Alpharetta,GA,Fulton County,34.09,-84.22
19025,0.9803725439875939,1,361,4244,2058,69.8,126705,Dresher,PA,Montgomery County,40.14,-75.16
10128,0.9803453878442274,1,362,53083,31644,82.2,111937,New York,NY,New York County,40.78,-73.95
02494,0.9802845334113361,1,363,7434,3589,69.7,126866,Needham Heights,MA,Norfolk County,42.3,-71.23
10010,0.9802135139753232,1,364,29766,15972,78,115084,New York,NY,New York County,40.74,-73.98
94925,0.9801614391035185,1,365,7202,3876,67.5,134902,Corte Madera,CA,Marin County,37.92,-122.51
20759,0.9801122504871591,1,366,3495,1543,64.2,155590,Fulton,MD,Howard County,39.15,-76.92
90067,0.9801082455242498,1,367,2104,1342,71,123889,Los Angeles,CA,Los Angeles County,34.06,-118.41
07481,0.980106391694304,1,368,12832,5827,65,147463,Wyckoff,NJ,Bergen County,40.99,-74.16
07059,0.9800898649976306,1,369,12339,5097,64.3,154429,Warren,NJ,Somerset County,40.63,-74.51
40059,0.9800572760478553,1,370,13853,6837,67.3,135190,Prospect,KY,Jefferson County,38.34,-85.6
21131,0.9800344818282731,1,371,5547,2553,70.5,124792,Phoenix,MD,Baltimore County,39.5,-76.56
01730,0.980029904939096,1,372,10537,5240,70.2,125208,Bedford,MA,Middlesex County,42.48,-71.26
48168,0.9800278918572752,1,373,16484,8022,67.8,133040,Northville,MI,Wayne County,42.4,-83.6
07446,0.9799933070820721,1,374,11423,5539,66.7,137331,Ramsey,NJ,Bergen County,41.05,-74.14
94062,0.9799771718590595,1,375,21567,10180,65,146450,Redwood City,CA,San Mateo County,37.4,-122.29
05445,0.979843039374495,1,376,2958,1466,74.9,117407,Charlotte,VT,Chittenden County,44.3,-73.25
98004,0.9798268868950895,1,377,27849,16006,74.9,117321,Bellevue,WA,King County,47.61,-122.21
94526,0.9796875671379552,1,378,24594,12212,65.5,141761,Danville,CA,Contra Costa County,37.81,-121.97
92091,0.9796432951152552,1,379,1276,644,66.6,136250,Rancho Santa Fe,CA,San Diego County,33.02,-117.24
95033,0.9795740008257594,1,380,7955,3708,64.5,147619,Los Gatos,CA,Santa Cruz County,37.13,-121.94
02043,0.9795253668792747,1,381,17049,8712,69.7,125144,Hingham,MA,Plymouth County,42.23,-70.88
48009,0.9794379454856778,1,382,15609,8982,76.7,114537,Birmingham,MI,Oakland County,42.54,-83.21
11215,0.9793879739219973,1,383,56318,28880,74.5,116893,Brooklyn,NY,Kings County,40.66,-73.99
02445,0.9793749744326082,1,384,16295,8473,80.4,111642,Brookline,MA,Norfolk County,42.32,-71.14
94010,0.9793282593973021,1,385,32578,16053,66.5,135283,Burlingame,CA,San Mateo County,37.56,-122.37
02460,0.979262956758662,1,386,7365,3722,73.3,118148,Newtonville,MA,Middlesex County,42.35,-71.2
20003,0.9792214980214966,1,387,26035,12394,72.9,118607,Washington,DC,District of Columbia,38.88,-76.99
90210,0.9791259340743129,1,388,16041,7983,64,149732,Beverly Hills,CA,Los Angeles County,34.09,-118.41
37215,0.9791127235638704,1,389,17727,9783,79,112047,Nashville,TN,Davidson County,36.08,-86.83
37069,0.9790846557897545,1,390,14438,7015,71.8,120414,Franklin,TN,Williamson County,35.99,-86.9
07045,0.9790821955207554,1,391,8218,3816,62.7,162798,Montville,NJ,Morris County,40.9,-74.36
02110,0.9790033254107979,1,392,2070,1347,84.7,108438,Boston,MA,Suffolk County,42.36,-71.05
07739,0.978992511567159,1,393,4323,2103,64.5,144250,Little Silver,NJ,Monmouth County,40.33,-74.03
77479,0.9788613688763972,1,394,63859,27308,66.1,135952,Sugar Land,TX,Fort Bend County,29.57,-95.64
60565,0.9788566327353452,1,395,29994,13697,69.1,124716,Naperville,IL,DuPage County,41.73,-88.12
60601,0.9788411769212962,1,396,12889,8400,80.9,110215,Chicago,IL,Cook County,41.89,-87.62
20833,0.9788339247977274,1,397,5762,2376,63.3,153919,Brookeville,MD,Montgomery County,39.17,-77.05
07626,0.9788038823989156,1,398,6385,2987,65.9,136250,Cresskill,NJ,Bergen County,40.94,-73.96
35213,0.978753932035967,1,399,9932,5487,80,110696,Birmingham,AL,Jefferson County,33.51,-86.74
02478,0.9787493896595758,1,400,19542,9708,72.7,118342,Belmont,MA,Middlesex County,42.39,-71.18
78738,0.9787167277398898,1,401,11223,5964,69.3,123836,Austin,TX,Travis County,30.32,-97.96
77382,0.9786283774591502,1,402,26886,13259,64.9,139902,Spring,TX,Montgomery County,30.19,-95.55
11965,0.9786270437862932,1,403,598,336,71.9,119583,Shelter Island Heights,NY,Suffolk County,41.1,-72.29
18977,0.978586385252842,1,404,3227,1512,67,130536,Washington Crossing,PA,Bucks County,40.28,-74.87
10570,0.9785690928652404,1,405,9430,4089,66.5,132601,Pleasantville,NY,Westchester County,41.13,-73.78
22202,0.9785483846973893,1,406,21495,12940,84.9,107760,Arlington,VA,Arlington County,38.86,-77.05
02466,0.97854359284282,1,407,6842,2820,74.7,115345,Auburndale,MA,Middlesex County,42.34,-71.24
07940,0.9785381772928039,1,408,13285,5369,67.6,128116,Madison,NJ,Morris County,40.75,-74.41
21036,0.978476131182538,1,409,1879,748,65.5,136667,Dayton,MD,Howard County,39.23,-77
06117,0.9784085487275057,1,410,12885,5497,70.7,120799,West Hartford,CT,Hartford County,41.79,-72.76
48025,0.9783253645186036,1,411,11211,5790,71.5,119828,Franklin,MI,Oakland County,42.51,-83.3
14506,0.97825163533541315,1,412,1205,529,66.9,129196,Mendon,NY,Monroe County,43.01,-77.52
06896,0.9781519244298378,1,413,7105,3460,66.7,129871,Redding,CT,Fairfield County,41.3,-73.38
94131,0.9781305195966301,1,414,24832,13243,71.2,119924,San Francisco,CA,San Francisco County,37.74,-122.44
10803,0.9780424533068548,1,415,9053,4020,63.3,146833,Pelham,NY,Westchester County,40.9,-73.81
02332,0.9779671064598432,1,416,11423,5427,68.6,123613,Duxbury,MA,Plymouth County,42.04,-70.67
92131,0.9779507045022591,1,417,24939,11572,68.1,125035,San Diego,CA,San Diego County,32.89,-117.07
10590,0.9779349607529069,1,418,5396,2594,65.4,135000,South Salem,NY,Westchester County,41.25,-73.54
98112,0.9779201113779112,1,419,20573,11264,78.9,110051,Seattle,WA,King County,47.63,-122.29
94970,0.9779024792858277,1,420,680,356,70.8,119934,Stinson Beach,CA,Marin County,37.91,-122.65
06831,0.9778337357218678,1,421,11456,5021,64,140924,Greenwich,CT,Fairfield County,41.09,-73.66
94040,0.977812687849535,1,422,27196,14297,70.6,120028,Mountain View,CA,Santa Clara County,37.38,-122.08
11201,0.977786473905365,1,423,51636,26923,72.6,116446,Brooklyn,NY,Kings County,40.69,-73.99
22209,0.9777266385859189,1,424,11201,7183,87.2,106424,Arlington,VA,Arlington County,38.9,-77.08
06001,0.9777016680883027,1,425,14134,7125,69,122486,Avon,CT,Hartford County,41.8,-72.83
07976,0.9776994784982141,1,426,541,228,72.7,116019,New Vernon,NJ,Morris County,40.73,-74.48
19333,0.9776871199606643,1,427,4967,2802,76.4,111892,Devon,PA,Chester County,40.04,-75.42
94904,0.9775898481233563,1,428,9995,5375,72.3,116469,Greenbrae,CA,Marin County,37.94,-122.56
16851,0.9775881747460173,1,429,698,312,75.6,112688,Lemont,PA,Centre County,40.82,-77.79
07079,0.9775761347122177,1,430,13130,5151,69.2,121637,South Orange,NJ,Essex County,40.74,-74.26
05055,0.9775658967391847,1,431,2422,1255,80.4,108711,Norwich,VT,Windsor County,43.72,-72.3
20165,0.9774653989419495,1,432,24996,11317,64.9,135250,Sterling,VA,Loudoun County,39.06,-77.39
11577,0.9773829631675829,1,433,9762,4298,66.8,126830,Roslyn Heights,NY,Nassau County,40.78,-73.64
20878,0.977378992717459,1,434,48898,22905,69.9,120149,Gaithersburg,MD,Montgomery County,39.12,-77.25
44236,0.9773419861303815,1,435,18618,9122,69.4,120825,Hudson,OH,Summit County,41.24,-81.45
20855,0.9772050364159433,1,436,11828,4954,66.4,127948,Derwood,MD,Montgomery County,39.13,-77.13
15367,0.9771034199112435,1,437,6224,2928,66,129063,Venetia,PA,Washington County,40.26,-80.05
11598,0.9770984860611915,1,438,9059,3896,63.4,140573,Woodmere,NY,Nassau County,40.63,-73.72
11733,0.9770360484772651,1,439,13127,5613,62.5,147330,East Setauket,NY,Suffolk County,40.93,-73.1
07302,0.976975537693195,1,440,36668,20267,73.2,113898,Jersey City,NJ,Hudson County,40.72,-74.05
50323,0.9769254931596038,1,441,8977,4566,65.5,130703,Urbandale,IA,Dallas County,41.63,-93.79
07933,0.9768990642500408,1,442,2690,1244,63,142542,Gillette,NJ,Morris County,40.7,-74.47
10016,0.9768735124584413,1,443,47080,28681,77.9,109250,New York,NY,New York County,40.75,-73.98
75013,0.9768653181356766,1,444,26861,12894,67.1,124915,Allen,TX,Collin County,33.11,-96.69
77019,0.9768440207851652,1,445,18748,10835,74.8,112243,Houston,TX,Harris County,29.76,-95.38
19041,0.9767444173622859,1,446,5169,2417,78.3,108750,Haverford,PA,Delaware County,40,-75.31
08730,0.9767401934896449,1,447,3676,1786,64.6,133493,Brielle,NJ,Monmouth County,40.1,-74.06
93953,0.9766408568013374,1,448,3888,1824,65.1,130833,Pebble Beach,CA,Monterey County,36.58,-121.94
07620,0.9766217317845218,1,449,1199,563,70.2,118068,Alpine,NJ,Bergen County,40.95,-73.92
97034,0.9766090162860974,1,450,14521,7770,69.8,118566,Lake Oswego,OR,Clackamas County,45.4,-122.68
19004,0.9765891428347464,1,451,7156,3795,74.7,111907,Bala Cynwyd,PA,Montgomery County,40.01,-75.22
19317,0.9765709043036097,1,452,7590,3704,65.2,130500,Chadds Ford,PA,Delaware County,39.86,-75.59
98053,0.9765594361960778,1,453,16372,8184,67.5,123548,Redmond,WA,King County,47.66,-122.01
94598,0.9765262580636418,1,454,21763,10305,65.6,128299,Walnut Creek,CA,Contra Costa County,37.91,-122.01
85255,0.9765238189953749,1,455,31882,16558,68,122411,Scottsdale,AZ,Maricopa County,33.66,-111.87
02874,0.9765139340388779,1,456,4444,2223,64.4,133655,Saunderstown,RI,Washington County,41.51,-71.44
60661,0.9764489365919333,1,457,9022,5776,89.6,104714,Chicago,IL,Cook County,41.88,-87.64
35649,0.9763679592295134,1,458,59,31,76.3,109750,Mooresville,AL,Limestone County,34.62,-86.88
18323,0.9762271638040404,1,459,158,84,76.6,109013,Buck Hill Falls,PA,Monroe County,41.2,-75.27
94402,0.9762232066659706,1,460,19359,9535,62.7,140186,San Mateo,CA,San Mateo County,37.52,-122.35
04541,0.9760852417824248,1,461,43,27,60.5,171406,Chamberlain,ME,Lincoln County,43.88,-69.49
60605,0.9760633419371993,1,462,23744,13239,78.4,107811,Chicago,IL,Cook County,41.87,-87.62
60010,0.9759810269575835,1,463,34925,16435,64.6,130748,Barrington,IL,Lake County,42.15,-88.12
45243,0.9759584477033942,1,464,11267,5499,72.3,113668,Cincinnati,OH,Hamilton County,39.19,-84.34
78701,0.9759579314906441,1,465,7774,4855,73.2,112201,Austin,TX,Travis County,30.26,-97.74
07711,0.9758653055680846,1,466,1284,593,63,137625,Allenhurst,NJ,Monmouth County,40.24,-74.01
60654,0.9758474836556785,1,467,16749,11635,86.3,104629,Chicago,IL,Cook County,41.89,-87.64
20871,0.975827374038204,1,468,13646,6240,66,125649,Clarksburg,MD,Montgomery County,39.23,-77.27
94588,0.975806162969657,1,469,25935,12259,63.1,136734,Pleasanton,CA,Alameda County,37.67,-121.93
94583,0.9757925570412149,1,470,26149,12015,62.9,137719,San Ramon,CA,Contra Costa County,37.78,-121.99
95032,0.9756256724106611,1,471,20020,9916,64.6,129177,Los Gatos,CA,Santa Clara County,37.23,-121.95
33146,0.9756075625629526,1,472,13181,4018,69.8,116536,Miami,FL,Miami-Dade County,25.72,-80.27
43065,0.9755658716040017,1,473,29649,14871,67,122555,Powell,OH,Delaware County,40.16,-83.06
68514,0.9755033610501642,1,474,160,75,61.3,151088,Lincoln,NE,Lancaster County,40.92,-96.65
07932,0.9754113455109974,1,475,8405,4093,66.6,122843,Florham Park,NJ,Morris County,40.77,-74.39
07023,0.9754053964918383,1,476,5492,2531,63.9,132292,Fanwood,NJ,Union County,40.64,-74.38
92660,0.9753978470652515,1,477,28320,15153,68.3,118971,Newport Beach,CA,Orange County,33.62,-117.87
01450,0.9753931626933782,1,478,8550,4101,66.2,123918,Groton,MA,Middlesex County,42.6,-71.57
98052,0.9753838496631488,1,479,50470,26051,69.1,117303,Redmond,WA,King County,47.68,-122.12
80108,0.9753631720637446,1,480,18050,8916,63.8,132588,Castle Rock,CO,Douglas County,39.45,-104.85
44022,0.9752501604214235,1,481,12733,6861,71.6,113438,Chagrin Falls,OH,Cuyahoga County,41.43,-81.38
07751,0.975248732577924,1,482,14618,6075,61.7,145118,Morganville,NJ,Monmouth County,40.36,-74.25
78730,0.975172426275323,1,483,6861,3678,75.5,108750,Austin,TX,Travis County,30.37,-97.84
98065,0.9750910017257244,1,484,10098,4951,63.2,133481,Snoqualmie,WA,King County,47.53,-121.8
95113,0.9750433656919537,1,485,1688,987,70.5,114539,San Jose,CA,Santa Clara County,37.33,-121.89
90275,0.9750348873782245,1,486,33353,15838,65.7,124384,Rancho Palos Verdes,CA,Los Angeles County,33.75,-118.31
14534,0.9749597900093909,1,487,24053,11997,72.6,111420,Pittsford,NY,Monroe County,43.09,-77.51
07722,0.9749254507680268,1,488,7458,3306,60,166706,Colts Neck,NJ,Monmouth County,40.28,-74.16
01921,0.9748576533476021,1,489,6261,2707,60.5,155034,Boxford,MA,Essex County,42.67,-70.98
22315,0.9748455270318384,1,490,22467,10543,64,129134,Alexandria,VA,Fairfax County,38.76,-77.15
55386,0.974797478323675,1,491,5053,2464,61.8,140946,Victoria,MN,Carver County,44.86,-93.65
90265,0.97478437135159,1,492,15104,7248,62.3,137672,Malibu,CA,Los Angeles County,34.06,-118.81
27608,0.9747216709774305,1,493,9054,4892,78,106630,Raleigh,NC,Wake County,35.81,-78.65
20880,0.9746927127732976,1,494,427,211,71.1,113125,Washington Grove,MD,Montgomery County,39.14,-77.17
63141,0.9746305074111566,1,495,16337,8482,72.7,110645,Saint Louis,MO,St. Louis County,38.66,-90.46
19106,0.9745941072631319,1,496,11227,6220,77.2,106823,Philadelphia,PA,Philadelphia County,39.95,-75.14
98029,0.9745285166891893,1,497,19850,10786,71.2,112833,Issaquah,WA,King County,47.55,-122
53122,0.9745264863509757,1,498,4640,2307,70.5,113750,Elm Grove,WI,Waukesha County,43.04,-88.08
66209,0.9743919066792327,1,499,15755,8244,72.9,109967,Leawood,KS,Johnson County,38.9,-94.64
08810,0.9743848695210566,1,500,6737,2865,63.4,130203,Dayton,NJ,Middlesex County,40.38,-74.51
19707,0.9743814152836829,1,501,12560,5901,65.4,123657,Hockessin,DE,New Castle County,39.78,-75.68
98006,0.9743718872880608,1,502,28561,13356,64.3,126601,Bellevue,WA,King County,47.55,-122.14
91377,0.9743202596034344,1,503,10529,5313,63.4,129721,Oak Park,CA,Ventura County,34.19,-118.76
21146,0.9742339051481226,1,504,20368,9462,63,131189,Severna Park,MD,Anne Arundel County,39.08,-76.57
97028,0.9742294396859801,1,505,68,42,85.3,103500,Government Camp,OR,Clackamas County,45.27,-121.71
94566,0.97412340159964,1,506,34150,16138,61.6,139628,Pleasanton,CA,Alameda County,37.65,-121.85
92037,0.9740876636041864,1,507,32646,17108,75.9,107094,La Jolla,CA,San Diego County,32.86,-117.24
10526,0.9740834224751529,1,508,1310,650,65.2,123357,Goldens Bridge,NY,Westchester County,41.29,-73.67
07746,0.9740538405755728,1,509,13996,5935,60.8,144588,Marlboro,NJ,Monmouth County,40.31,-74.25
48304,0.9739479351169995,1,510,13003,6379,68.9,115313,Bloomfield Hills,MI,Oakland County,42.57,-83.24
75082,0.9739333312758434,1,511,18442,8956,66.5,120237,Richardson,TX,Collin County,32.99,-96.66
07649,0.9739252444357746,1,512,6079,2696,61.8,137583,Oradell,NJ,Bergen County,40.95,-74.03
11803,0.9739121374636894,1,513,21971,9632,62.3,134375,Plainview,NY,Nassau County,40.78,-73.47
08003,0.9739049795107633,1,514,23177,10907,65.5,122591,Cherry Hill,NJ,Camden County,39.88,-74.97
02806,0.9738306823456441,1,515,11756,6075,67.7,117408,Barrington,RI,Bristol County,41.73,-71.31
02637,0.9737873870349256,1,516,110,56,60.9,142692,Cummaquid,MA,Barnstable County,41.71,-70.27
02061,0.9736901881675282,1,517,7838,3632,63.1,128563,Norwell,MA,Plymouth County,42.16,-70.78
77494,0.9736819420755842,1,518,69878,32612,61.7,137600,Katy,TX,Fort Bend County,29.74,-95.83
10003,0.973640844243632,1,519,51228,26699,80.4,104441,New York,NY,New York County,40.73,-73.99
48098,0.9736207001133718,1,520,15002,7123,67.7,116924,Troy,MI,Oakland County,42.6,-83.18
20868,0.9735654895079422,1,521,538,217,57.8,209145,Spencerville,MD,Montgomery County,39.12,-76.96
07853,0.9735245124707415,1,522,9662,4245,59.8,154135,Long Valley,NJ,Morris County,40.78,-74.76
10012,0.9734935663298576,1,523,22465,12349,79.6,104561,New York,NY,New York County,40.73,-74
77345,0.9734504475274082,1,524,21061,9725,62.9,128646,Kingwood,TX,Harris County,30.05,-95.16
92651,0.973417983316722,1,525,20520,11035,66.1,120302,Laguna Beach,CA,Orange County,33.55,-117.78
08553,0.9733874247051602,1,526,464,230,69.7,112917,Rocky Hill,NJ,Somerset County,40.4,-74.63
60305,0.9733658951328629,1,527,8398,3909,74.9,106947,River Forest,IL,Cook County,41.89,-87.81
03049,0.9733439873989599,1,528,6058,3010,63.5,126379,Hollis,NH,Hillsborough County,42.73,-71.58
21163,0.9733437551771742,1,529,5693,2588,61.8,135214,Woodstock,MD,Howard County,39.32,-76.87
75019,0.973322333087574,1,530,30708,15346,66.7,118471,Coppell,TX,Dallas County,32.96,-96.99
77056,0.973306627795346,1,531,18827,10782,74.8,107003,Houston,TX,Harris County,29.75,-95.47
07632,0.973279145259552,1,532,4241,1871,61.8,134904,Englewood Cliffs,NJ,Bergen County,40.88,-73.94
77441,0.9732073216754853,1,533,7188,3315,59.2,160162,Fulshear,TX,Fort Bend County,29.67,-95.92
15241,0.9731932207350259,1,534,15179,7653,68.8,113998,Pittsburgh,PA,Allegheny County,40.33,-80.08
94041,0.97313576877033,1,535,12136,6410,65.1,121650,Mountain View,CA,Santa Clara County,37.39,-122.08
92823,0.9730928304204862,1,536,2893,1243,60.9,138831,Brea,CA,Orange County,33.92,-117.8
94304,0.9730828803827565,1,537,3099,1843,81.2,103648,Palo Alto,CA,Santa Clara County,37.37,-122.18
22206,0.9730333002927367,1,538,17339,10390,76,106000,Arlington,VA,Arlington County,38.84,-77.09
98033,0.9729992834994627,1,539,30364,16133,66.7,117653,Kirkland,WA,King County,47.67,-122.18
06070,0.9729892392910908,1,540,11914,5750,66.4,118538,Simsbury,CT,Hartford County,41.88,-72.81
03768,0.9729334819044653,1,541,1311,661,72.4,108558,Lyme,NH,Grafton County,43.8,-72.15
20147,0.9729240229344153,1,542,45671,21557,63.5,125508,Ashburn,VA,Loudoun County,39.04,-77.48
08535,0.9729196398098983,1,543,3551,1560,58.3,174205,Millstone Township,NJ,Monmouth County,40.21,-74.44
49301,0.9728675343696476,1,544,14132,6612,65.3,120775,Ada,MI,Kent County,42.95,-85.48
03031,0.9727534691010946,1,545,8525,4081,63.4,125445,Amherst,NH,Hillsborough County,42.86,-71.61
02462,0.9727520836590582,1,546,1232,612,78.4,104375,Newton Lower Falls,MA,Middlesex County,42.33,-71.26
91302,0.9727467198782219,1,547,20233,9503,64.2,122967,Calabasas,CA,Los Angeles County,34.11,-118.67
43054,0.9727173011748562,1,548,17810,9445,68.1,114372,New Albany,OH,Franklin County,40.07,-82.8
08820,0.9726439462089331,1,549,30838,13041,65,120911,Edison,NJ,Middlesex County,40.58,-74.37
07640,0.9725699502911711,1,550,3480,1629,62.6,127188,Harrington Park,NJ,Bergen County,40.98,-73.98
07869,0.9725036842526029,1,551,19431,8923,62.8,126290,Randolph,NJ,Morris County,40.84,-74.58
18902,0.9724900955805535,1,552,15572,7512,61.4,134180,Doylestown,PA,Bucks County,40.36,-75.09
67230,0.9724758314438796,1,553,8186,3713,62.7,126406,Wichita,KS,Sedgwick County,37.69,-97.17
91105,0.9723738964354298,1,554,10085,5343,68.7,112765,Pasadena,CA,Los Angeles County,34.14,-118.16
00906,0.9723633744714322,1,555,91,68,92.3,101346,San Juan,PR,San Juan Municipio,18.46,-66.09
07041,0.9723182637878931,1,556,5101,2561,76.6,104786,Millburn,NJ,Essex County,40.72,-74.3
37220,0.9723033202422561,1,557,4433,2314,67.6,114841,Nashville,TN,Davidson County,36.07,-86.79
92679,0.9722955346495439,1,558,24455,10762,59.1,153053,Trabuco Canyon,CA,Orange County,33.61,-117.6
12504,0.9722788659573887,1,559,1469,46,59.6,145833,Annandale On Hudson,NY,Dutchess County,42.03,-73.91
02446,0.972271303218747,1,560,25711,13301,84.4,102342,Brookline,MA,Norfolk County,42.34,-71.12
01945,0.972257000624949,1,561,15546,8250,70.3,110025,Marblehead,MA,Essex County,42.5,-70.85
01982,0.9722357723000095,1,562,5801,2677,68.9,112250,South Hamilton,MA,Essex County,42.62,-70.86
10018,0.9722208672114959,1,563,8960,4993,72.1,107861,New York,NY,New York County,40.76,-73.99
33473,0.9722193318853005,1,564,7439,3246,60.4,138661,Boynton Beach,FL,Palm Beach County,26.49,-80.19
23120,0.9722174090297833,1,565,6004,2656,61.6,132347,Moseley,VA,Chesterfield County,37.41,-77.77
07040,0.9721825402636161,1,566,17492,8149,63,125036,Maplewood,NJ,Essex County,40.73,-74.27
92121,0.972146303311805,1,567,4006,1794,78.2,103953,San Diego,CA,San Diego County,32.9,-117.2
07624,0.9719697792585944,1,568,6518,2673,61.7,130815,Closter,NJ,Bergen County,40.97,-73.96
22125,0.9717937753624719,1,569,644,354,60.1,138750,Occoquan,VA,Prince William County,38.68,-77.26
75025,0.9717749900501387,1,570,39788,19007,68,112999,Plano,TX,Collin County,33.09,-96.74
87122,0.9717601022180182,1,571,13988,6881,68.7,111676,Albuquerque,NM,Bernalillo County,35.19,-106.5
60047,0.9717487376488434,1,572,31867,13698,61.2,132803,Lake Zurich,IL,Lake County,42.19,-88.08
90743,0.9716458564968584,1,573,218,125,60.3,137361,Surfside,CA,Orange County,33.73,-118.09
80007,0.9716407633949314,1,574,7523,3649,60.7,134472,Arvada,CO,Jefferson County,39.86,-105.19
46037,0.9715805193454328,1,575,28008,13844,68.4,111873,Fishers,IN,Hamilton County,39.96,-85.94
08057,0.971457868280454,1,576,15791,7295,61,132713,Moorestown,NJ,Burlington County,39.97,-74.94
80126,0.9714058146093815,1,577,31306,15456,63.8,121524,Littleton,CO,Douglas County,39.54,-104.96
89411,0.9713150770295529,1,578,680,332,58.1,154583,Genoa,NV,Douglas County,39,-119.84
20009,0.9712725380420477,1,579,46401,27184,79.3,102941,Washington,DC,District of Columbia,38.92,-77.04
10560,0.971247012874557,1,580,3907,1713,59.8,138875,North Salem,NY,Westchester County,41.33,-73.59
60203,0.971236865127828,1,581,3128,1503,68.5,110950,Evanston,IL,Cook County,42.05,-87.72
22015,0.9711364575568959,1,582,34391,14730,62.1,125940,Burke,VA,Fairfax County,38.78,-77.27
15090,0.9711151429499916,1,583,17607,9073,69.2,109710,Wexford,PA,Allegheny County,40.63,-80.05
20141,0.9710721488866305,1,584,4278,2009,58.6,147516,Round Hill,VA,Loudoun County,39.13,-77.77
22153,0.9710208781628791,1,585,23138,10151,59.8,138083,Springfield,VA,Fairfax County,38.74,-77.24
98110,0.9709697706353415,1,586,17907,9679,69.2,109341,Bainbridge Island,WA,Kitsap County,47.64,-122.53
98077,0.9709637831590578,1,587,10579,4795,58.9,144193,Woodinville,WA,King County,47.75,-122.04
61525,0.9708751528316932,1,588,6298,3146,68.3,110595,Dunlap,IL,Peoria County,40.86,-89.67
11579,0.9708728902716943,1,589,4115,1961,65.6,115822,Sea Cliff,NY,Nassau County,40.84,-73.64
18940,0.9708516619467547,1,590,22757,10883,64.5,118488,Newtown,PA,Bucks County,40.22,-74.93
94963,0.9708453599110592,1,591,396,196,72.5,106170,San Geronimo,CA,Marin County,38.01,-122.67
22307,0.970840550800097,1,592,7956,4564,69.2,109113,Alexandria,VA,Fairfax County,38.77,-77.06
02186,0.9707109010340673,1,593,20520,8970,61.8,126000,Milton,MA,Norfolk County,42.24,-71.08
01541,0.970689922187306,1,594,2782,1279,61.3,128006,Princeton,MA,Worcester County,42.45,-71.86
18925,0.9706479817501764,1,595,4993,2383,59.1,141125,Furlong,PA,Bucks County,40.29,-75.05
68118,0.9706316527625034,1,596,7290,3515,62.6,122765,Omaha,NE,Douglas County,41.26,-96.18
94043,0.9705698216176302,1,597,24905,12923,64.4,118355,Mountain View,CA,Santa Clara County,37.41,-122.05
21035,0.9705129203784695,1,598,5989,2581,58.3,146116,Davidsonville,MD,Anne Arundel County,38.93,-76.63
95138,0.9704835534442822,1,599,14752,6119,57.3,159311,San Jose,CA,Santa Clara County,37.24,-121.73
22203,0.970479943899372,1,600,20897,11736,74.8,104171,Arlington,VA,Arlington County,38.87,-77.12
84098,0.9704729067411968,1,601,13785,7020,64.4,118245,Park City,UT,Summit County,40.71,-111.55
02116,0.9704660712363584,1,602,21540,11987,76.5,103422,Boston,MA,Suffolk County,42.35,-71.08
94086,0.9704593008127547,1,603,39130,19327,64.1,118576,Sunnyvale,CA,Santa Clara County,37.36,-122.02
03755,0.9703485344740385,1,604,9367,2725,80.8,101825,Hanover,NH,Grafton County,43.7,-72.27
21405,0.9703128270470325,1,605,293,175,73.9,104408,Annapolis,MD,Anne Arundel County,39.03,-76.56
80027,0.9703008772395363,1,606,24954,12799,73,105009,Louisville,CO,Boulder County,39.96,-105.14
92610,0.9702948897632534,1,607,8985,4180,61,128050,Foothill Ranch,CA,Orange County,33.7,-117.67
94568,0.9702735366992244,1,608,39475,17746,60,133769,Dublin,CA,Alameda County,37.71,-121.91
07058,0.9702107633551554,1,609,3695,1864,65.9,114229,Pine Brook,NJ,Morris County,40.86,-74.34
22033,0.970139903171017,1,610,30729,15187,67.9,110519,Fairfax,VA,Fairfax County,38.88,-77.38
19444,0.970036398323586,1,611,8399,4294,65.4,115156,Lafayette Hill,PA,Montgomery County,40.08,-75.25
94002,0.9698572414374466,1,612,21050,10349,61.4,125546,Belmont,CA,San Mateo County,37.5,-122.3
03110,0.9698478381809138,1,613,16363,7752,60.7,127945,Bedford,NH,Hillsborough County,42.95,-71.5
80132,0.9697941629016809,1,614,16165,7317,61,126619,Monument,CO,El Paso County,39.1,-104.85
08561,0.9697572637973,1,615,148,65,62.2,122697,Windsor,NJ,Mercer County,40.25,-74.58
95135,0.9697506910826946,1,616,17356,7482,59.2,137067,San Jose,CA,Santa Clara County,37.29,-121.69
02812,0.9696494142824772,1,617,953,418,61.9,123047,Carolina,RI,Washington County,41.47,-71.64
18340,0.9695909644050669,1,618,209,77,57.6,145515,Millrift,PA,Pike County,41.42,-74.77
29915,0.9695699683019129,1,619,382,193,58.6,139135,Daufuskie Island,SC,Beaufort County,32.12,-80.86
27518,0.969546429592134,1,620,15787,8224,71.4,105875,Cary,NC,Wake County,35.73,-78.77
20832,0.9695380203039768,1,621,20363,8816,60.4,128475,Olney,MD,Montgomery County,39.14,-77.08
22043,0.9695033665032025,1,622,19766,9105,65.4,114050,Falls Church,VA,Fairfax County,38.9,-77.2
80130,0.9694905262656887,1,623,19903,9957,64.8,115276,Littleton,CO,Douglas County,39.54,-104.93
19355,0.9694514720840046,1,624,19374,9502,65.6,113441,Malvern,PA,Chester County,40.03,-75.51
85284,0.9693361249117736,1,625,14446,6821,64.7,115169,Tempe,AZ,Maricopa County,33.33,-111.93
78737,0.9693173529114936,1,626,11438,5305,60.5,127136,Austin,TX,Hays County,30.19,-97.96
20882,0.9692727584407039,1,627,10467,4315,57,152771,Gaithersburg,MD,Montgomery County,39.24,-77.15
22152,0.9691519996627965,1,628,22245,10339,61.5,123313,Springfield,VA,Fairfax County,38.77,-77.23
60614,0.9690720971273378,1,629,60519,33591,83.6,100116,Chicago,IL,Cook County,41.92,-87.65
84108,0.9690692108718931,1,630,17252,7664,74.4,103297,Salt Lake City,UT,Salt Lake County,40.78,-111.73
08750,0.9690661269074489,1,631,2700,1407,63.2,117950,Sea Girt,NJ,Monmouth County,40.12,-74.03
20169,0.969032875805102,1,632,17009,7494,57.7,141488,Haymarket,VA,Prince William County,38.88,-77.65
22031,0.969032131314906,1,633,25773,12161,66.8,110341,Fairfax,VA,Fairfax County,38.85,-77.29
08033,0.9689760514801917,1,634,11893,6192,66.1,111939,Haddonfield,NJ,Camden County,39.89,-75.03
66226,0.9689533262861811,1,635,9539,4457,62.3,120551,Shawnee,KS,Johnson County,39.03,-94.86
55331,0.9689486074015221,1,636,13679,7013,63.3,117422,Excelsior,MN,Hennepin County,44.9,-93.56
80924,0.9689219290137805,1,637,5184,2486,61,124745,Colorado Springs,CO,El Paso County,38.97,-104.72
21043,0.9687768964036125,1,638,35317,16735,64.4,114816,Ellicott City,MD,Howard County,39.26,-76.8
08525,0.9687465488131042,1,639,3956,1884,60.4,126141,Hopewell,NJ,Mercer County,40.38,-74.76
03844,0.9687110736078833,1,640,1843,896,59.8,129141,Hampton Falls,NH,Rockingham County,42.91,-70.86
91361,0.9686966502193346,1,641,16859,8675,63.7,116114,Westlake Village,CA,Ventura County,34.14,-118.89
73025,0.9686339976700151,1,642,8405,3717,59.9,128163,Edmond,OK,Oklahoma County,35.73,-97.58
23129,0.968581552525282,1,643,370,218,63.2,116887,Oilville,VA,Goochland County,37.7,-77.78
19102,0.9685079002563388,1,644,4907,2996,85.4,99167,Philadelphia,PA,Philadelphia County,39.95,-75.17
03854,0.9684846203924558,1,645,803,467,64.9,113281,New Castle,NH,Rockingham County,43.06,-70.72
80023,0.9684017029181251,1,646,14250,7559,64.2,114517,Broomfield,CO,Broomfield County,39.96,-105.02
10522,0.9683836966087734,1,647,8716,3679,60,126988,Dobbs Ferry,NY,Westchester County,41.01,-73.86
07750,0.9683345291931462,1,648,2616,1411,66.2,110380,Monmouth Beach,NJ,Monmouth County,40.33,-73.98
66085,0.9682942793897484,1,649,5847,2744,60.4,125250,Stilwell,KS,Johnson County,38.78,-94.68
92009,0.9682496158933875,1,650,33313,16485,62,120090,Carlsbad,CA,San Diego County,33.1,-117.24
94923,0.9681956911359761,1,651,751,452,61.9,120250,Bodega Bay,CA,Sonoma County,38.35,-123.06
06612,0.9681921811850843,1,652,5822,2762,58,136786,Easton,CT,Fairfield County,41.24,-73.31
01746,0.9681618547953086,1,653,10682,5171,62.3,118933,Holliston,MA,Middlesex County,42.2,-71.43
80124,0.9681522750305078,1,654,15695,8051,66.1,110403,Lone Tree,CO,Douglas County,39.53,-104.89
55129,0.96813401924297815,1,655,16917,8324,60.9,122854,Saint Paul,MN,Washington County,44.88,-92.89
30306,0.9680663332495871,1,656,19174,10684,79.6,100380,Atlanta,GA,Fulton County,33.78,-84.34
08248,0.9680073075015712,1,657,233,103,54.8,222031,Strathmere,NJ,Cape May County,39.19,-74.66
93623,0.9679735480751533,1,658,108,47,69.4,105868,Fish Camp,CA,Mariposa County,37.47,-119.66
06783,0.967938266634594,1,659,1806,920,62.1,119167,Roxbury,CT,Litchfield County,41.55,-73.3
01106,0.9678558136038347,1,660,12291,5822,65.4,111231,Longmeadow,MA,Hampden County,42.04,-72.57
20720,0.9678373428509117,1,661,17404,7372,57.4,138636,Bowie,MD,Prince George's County,38.98,-76.79
55410,0.9678233493931478,1,662,15378,8523,68.6,106438,Minneapolis,MN,Hennepin County,44.91,-93.32
01721,0.9678024395719587,1,663,13466,6689,61.7,120309,Ashland,MA,Middlesex County,42.25,-71.46
96821,0.9677405354571749,1,664,15311,6418,59.1,129713,Honolulu,HI,Honolulu County,21.31,-157.75
60540,0.9677208769712169,1,665,34255,15848,64.7,112360,Naperville,IL,DuPage County,41.76,-88.15
78257,0.9677178659766821,1,666,4471,2186,61.3,120955,San Antonio,TX,Bexar County,29.66,-98.58
02474,0.9677101400418264,1,667,21830,11400,70.5,104583,Arlington,MA,Middlesex County,42.42,-71.16
04105,0.9676847263013706,1,668,8899,4613,67.9,107194,Falmouth,ME,Cumberland County,43.72,-70.24
01827,0.9676568695483085,1,669,2550,1138,57.3,138700,Dunstable,MA,Middlesex County,42.66,-71.48
04107,0.967618709740981,1,670,7079,3733,68.5,106343,Cape Elizabeth,ME,Cumberland County,43.56,-70.2
30068,0.9675865467776521,1,671,23912,12009,67,108105,Marietta,GA,Cobb County,33.97,-84.43
01983,0.9675670608556228,1,672,4898,2237,58.6,131387,Topsfield,MA,Essex County,42.63,-70.95
11548,0.9674220455018481,1,673,2543,522,60.4,123056,Greenvale,NY,Nassau County,40.81,-73.63
87544,0.9673470728721039,1,674,13871,7525,65.5,110190,Los Alamos,NM,Los Alamos County,35.89,-106.28
15015,0.9672800411426072,1,675,925,471,66.1,108958,Bradfordwoods,PA,Allegheny County,40.63,-80.08
78703,0.967242414804421,1,676,16677,9723,83.9,98553,Austin,TX,Travis County,30.29,-97.77
07960,0.9671914241272966,1,677,36451,17641,63,114844,Morristown,NJ,Morris County,40.79,-74.47
92861,0.9671681097506251,1,678,4782,1984,56.6,143077,Villa Park,CA,Orange County,33.81,-117.81
43021,0.9671531874057193,1,679,8559,3848,59.7,125492,Galena,OH,Delaware County,40.22,-82.88
19034,0.9671467951437215,1,680,4544,1990,62.1,117419,Fort Washington,PA,Montgomery County,40.13,-75.19
60044,0.9671154363284448,1,681,7707,3815,68.9,105331,Lake Bluff,IL,Lake County,42.28,-87.85
94555,0.9671099650649114,1,682,27759,11316,58,132823,Fremont,CA,Alameda County,37.55,-122.07
60514,0.9671035940036449,1,683,6954,3828,70.6,103886,Clarendon Hills,IL,DuPage County,41.79,-87.95
48323,0.9670793719405646,1,684,13528,6611,63.2,114155,West Bloomfield,MI,Oakland County,42.56,-83.38
11566,0.9669661413885109,1,685,26322,11225,56.5,142862,Merrick,NY,Nassau County,40.65,-73.55
07702,0.9669213186402755,1,686,3009,1450,60.4,122321,Shrewsbury,NJ,Monmouth County,40.32,-74.05
06089,0.9668990790905672,1,687,2478,1299,70.9,103625,Weatogue,CT,Hartford County,41.84,-72.82
11721,0.9668330585858393,1,688,4663,2264,60,123333,Centerport,NY,Suffolk County,40.9,-73.37
75035,0.9668188117055582,1,689,44042,21127,60.1,122843,Frisco,TX,Collin County,33.16,-96.79
02458,0.9667758427872672,1,690,9810,4942,70.1,103978,Newton,MA,Middlesex County,42.35,-71.19
19422,0.9667373911002984,1,691,14841,7153,61.8,117488,Blue Bell,PA,Montgomery County,40.14,-75.26
60026,0.9666994250576312,1,692,10806,5293,67.9,106283,Glenview,IL,Cook County,42.08,-87.82
14881,0.9666624702397331,1,693,263,113,62.4,115495,Slaterville Springs,NY,Tompkins County,42.4,-76.36
01342,0.9665379002635754,1,694,1370,563,67.9,106146,Deerfield,MA,Franklin County,42.55,-72.6
07082,0.9664996807983921,1,695,3989,1673,61.9,116615,Towaco,NJ,Morris County,40.93,-74.34
01760,0.966488427656252,1,696,26995,14157,67.6,106332,Natick,MA,Middlesex County,42.28,-71.35
55356,0.9664447581282667,1,697,3782,1967,60.3,121469,Long Lake,MN,Hennepin County,44.98,-93.56
85266,0.9664298530397537,1,698,10819,5250,62.2,115787,Scottsdale,AZ,Maricopa County,33.77,-111.92
11739,0.9664048652857433,1,699,761,321,57.1,135781,Great River,NY,Suffolk County,40.73,-73.16
20190,0.9663821095232861,1,700,16139,8746,66.6,107117,Reston,VA,Fairfax County,38.95,-77.34
80921,0.9662390860506,1,701,15399,7530,61.4,117677,Colorado Springs,CO,El Paso County,39.02,-104.91
94592,0.9662062821354318,1,702,851,305,60.6,120125,Vallejo,CA,Solano County,38.11,-122.29
55317,0.9661875658486703,1,703,15664,7668,62.2,115461,Chanhassen,MN,Carver County,44.85,-93.55
60192,0.966044008906841,1,704,12069,5512,59.6,122892,Hoffman Estates,IL,Cook County,42.06,-88.2
16046,0.9660214296526515,1,705,11844,6065,65,108789,Mars,PA,Butler County,40.69,-80.01
20175,0.9660172960063138,1,706,24088,11257,59.9,122087,Leesburg,VA,Loudoun County,39.1,-77.55
20120,0.9659340945410189,1,707,31027,13684,61.6,116593,Centreville,VA,Fairfax County,38.84,-77.44
19010,0.9658912503618168,1,708,16682,7240,73,101577,Bryn Mawr,PA,Delaware County,40.02,-75.31
01581,0.9658441265964577,1,709,13838,6682,65.7,107604,Westborough,MA,Worcester County,42.26,-71.61
76226,0.9657698254869994,1,710,17813,8020,57.4,130720,Argyle,TX,Denton County,33.11,-97.17
43082,0.9657545116684332,1,711,24465,11667,61.4,116774,Westerville,OH,Delaware County,40.15,-82.88
21111,0.9657460160983109,1,712,3595,1694,59.5,122730,Monkton,MD,Baltimore County,39.57,-76.58
43035,0.9657131604139644,1,713,17813,8595,62.5,113466,Lewis Center,OH,Delaware County,40.18,-82.99
92011,0.965697756369094,1,714,18755,9432,63.9,110505,Carlsbad,CA,San Diego County,33.1,-117.29
92129,0.9656792338469928,1,715,40433,17744,60.2,120279,San Diego,CA,San Diego County,32.96,-117.12
30075,0.9655650995528684,1,716,40055,19424,64.1,109786,Roswell,GA,Fulton County,34.03,-84.35
29451,0.9655273829883793,1,717,3762,1934,71.9,102143,Isle Of Palms,SC,Charleston County,32.8,-79.75
63038,0.9654573190636171,1,718,5347,2490,58.5,125441,Glencoe,MO,St. Louis County,38.58,-90.67
48069,0.9654456054222446,1,719,1920,1058,71.6,102287,Pleasant Ridge,MI,Oakland County,42.47,-83.14
08833,0.9654306406758755,1,720,6832,3135,56.3,137063,Lebanon,NJ,Hunterdon County,40.64,-74.83
10956,0.9654224675538425,1,721,24676,10251,58.7,124606,New City,NY,Rockland County,41.15,-73.99
28036,0.9653690072400026,1,722,13052,5793,61.9,114641,Davidson,NC,Mecklenburg County,35.49,-80.84
33332,0.9652367936666159,1,723,8190,3175,57.4,128601,Fort Lauderdale,FL,Broward County,26.01,-80.46
02144,0.965203318231161,1,724,22533,10792,71.6,102033,Somerville,MA,Middlesex County,42.4,-71.12
14051,0.9651861121255252,1,725,15073,7563,62.2,113750,East Amherst,NY,Erie County,43.04,-78.7
94552,0.9651841508128826,1,726,11702,5137,56.7,133321,Castro Valley,CA,Alameda County,37.69,-122.01
30305,0.9651470618881781,1,727,19937,11816,78.7,98506,Atlanta,GA,Fulton County,33.83,-84.38
07950,0.9651370482482549,1,728,15085,6952,60,120095,Morris Plains,NJ,Morris County,40.83,-74.48
75078,0.9651353191573981,1,729,13266,6111,56.2,136642,Prosper,TX,Collin County,33.24,-96.78
85045,0.9651247587362766,1,730,5450,2541,56.5,134517,Phoenix,AZ,Maricopa County,33.3,-112.1
11050,0.9650993661965528,1,731,22835,10981,62.5,112567,Port Washington,NY,Nassau County,40.82,-73.68
80111,0.9650883452761978,1,732,24005,12447,71.4,102191,Englewood,CO,Arapahoe County,39.61,-104.88
94115,0.9650523711146203,1,733,31239,17562,68.8,103625,San Francisco,CA,San Francisco County,37.78,-122.43
60089,0.9650455316654443,1,734,32212,15662,65.8,106630,Buffalo Grove,IL,Lake County,42.16,-87.96
12448,0.9650355047134658,1,735,393,235,63.9,109531,Lake Hill,NY,Ulster County,42.07,-74.2
08824,0.9650240154052016,1,736,9517,4198,57.3,128623,Kendall Park,NJ,Middlesex County,40.42,-74.55
98115,0.9649804785049818,1,737,41565,21844,73.1,100794,Seattle,WA,King County,47.68,-122.28
94502,0.9649534046992421,1,738,11046,5116,59.2,122368,Alameda,CA,Alameda County,37.73,-122.24
10968,0.9649307736758732,1,739,1965,1112,69.8,102847,Piermont,NY,Rockland County,41.04,-73.92
80129,0.9649300770105174,1,740,21545,10798,63,110801,Littleton,CO,Douglas County,39.54,-105
11718,0.964889435733459,1,741,2371,1116,58.7,123152,Brightwaters,NY,Suffolk County,40.71,-73.26
92887,0.964882471545193,1,742,15398,6628,56.5,133542,Yorba Linda,CA,Orange County,33.88,-117.72
08867,0.9647785407113156,1,743,3889,1789,57.8,125694,Pittstown,NJ,Hunterdon County,40.57,-74.96
97229,0.9647447600841657,1,744,47686,23913,63.9,108861,Portland,OR,Washington County,45.55,-122.81
99516,0.9646563713463006,1,745,15857,7148,54.6,153946,Anchorage,AK,Anchorage Municipality,61.08,-149.7
46278,0.9646535792614983,1,746,6304,2850,62.8,110750,Indianapolis,IN,Marion County,39.89,-86.3
90290,0.9645433809047113,1,747,4384,2368,68.3,103553,Topanga,CA,Los Angeles County,34.1,-118.6
66218,0.9644928546711569,1,748,5403,2649,60.1,118284,Shawnee,KS,Johnson County,39.02,-94.82
10530,0.9644380779408519,1,749,10493,5781,67.9,103950,Hartsdale,NY,Westchester County,41.02,-73.8
23233,0.9644205188186789,1,750,23110,12006,68.5,103404,Henrico,VA,Henrico County,37.65,-77.62
68520,0.9643516332592372,1,751,1231,618,63.7,108750,Lincoln,NE,Lancaster County,40.8,-96.55
33629,0.96431256182116,1,752,18865,10382,66.2,105443,Tampa,FL,Hillsborough County,27.92,-82.51
92782,0.9642934885735233,1,753,17540,8422,65.7,106125,Tustin,CA,Orange County,33.75,-117.77
91210,0.9642567620330708,1,754,505,310,54.3,155833,Glendale,CA,Los Angeles County,34.14,-118.26
21013,0.9642454186646282,1,755,4047,1755,55.6,138111,Baldwin,MD,Baltimore County,39.51,-76.49
01719,0.9642082222572281,1,756,4397,2288,71.8,101077,Boxborough,MA,Middlesex County,42.5,-71.5
55311,0.9641812731905774,1,757,26364,13330,58.5,122582,Osseo,MN,Hennepin County,45.11,-93.5
07830,0.9640506639689583,1,758,5015,2412,57.6,124659,Califon,NJ,Hunterdon County,40.72,-74.79
08536,0.9640317923746589,1,759,14923,7955,75.7,98883,Plainsboro,NJ,Middlesex County,40.33,-74.58
08889,0.964024110320306,1,760,7536,3743,55.9,134387,Whitehouse Station,NJ,Hunterdon County,40.6,-74.76
05657,0.9639941966049219,1,761,69,34,68.3,103214,Lake Elmore,VT,Lamoille County,44.54,-72.53
60062,0.9639792185464984,1,762,31505,15705,65.4,106197,Northbrook,IL,Cook County,42.12,-87.83
07068,0.9639445262885995,1,763,4724,2415,62.6,110208,Roseland,NJ,Essex County,40.82,-74.3
22302,0.9639363359101727,1,764,15447,8195,67.6,103785,Alexandria,VA,Alexandria city,38.82,-77.08
06443,0.9639272166446045,1,765,13561,6749,63.8,108167,Madison,CT,New Haven County,41.27,-72.59
60611,0.9639122080177323,1,766,30299,20487,83,96040,Chicago,IL,Cook County,41.9,-87.61
98199,0.9638818949400114,1,767,17351,9518,68.1,103309,Seattle,WA,King County,47.65,-122.4
02835,0.9638557155086269,1,768,4447,2303,66.1,105201,Jamestown,RI,Newport County,41.48,-71.36
37922,0.9637450699646624,1,769,26129,12848,65.5,105798,Knoxville,TN,Knox County,35.86,-84.1
21044,0.9637422566791274,1,770,34708,17697,67,104018,Columbia,MD,Howard County,39.21,-76.88
01867,0.9636401929872501,1,771,18913,9063,61.2,113553,Reading,MA,Middlesex County,42.53,-71.1
07020,0.963516371445628,1,772,9674,5411,67.6,103505,Edgewater,NJ,Bergen County,40.82,-73.97
08056,0.9633643149893374,1,773,3350,1517,53.9,158359,Mickleton,NJ,Gloucester County,39.78,-75.25
07661,0.9632984961379483,1,774,8833,4004,57.4,123590,River Edge,NJ,Bergen County,40.92,-74.04
07645,0.9631772729164689,1,775,6427,2823,58.7,120060,Montvale,NJ,Bergen County,41.05,-74.04
22030,0.9631456991358005,1,776,47097,19455,61.1,112911,Fairfax,VA,Fairfax County,38.84,-77.34
85262,0.9630372259255316,1,777,9685,4866,60,115743,Scottsdale,AZ,Maricopa County,33.84,-111.81
21104,0.9630294058200337,1,778,3870,1631,55.5,134291,Marriottsville,MD,Carroll County,39.35,-76.89
92620,0.962971888774105,1,779,36624,18112,68,102815,Irvine,CA,Orange County,33.7,-117.76
94939,0.9629674021112304,1,780,5775,3293,72.4,99980,Larkspur,CA,Marin County,37.93,-122.53
07921,0.9629673291413209,1,781,6707,3951,66.1,104328,Bedminster,NJ,Somerset County,40.65,-74.67
90292,0.9629262446214233,1,782,20232,12354,66.4,103948,Marina Del Rey,CA,Los Angeles County,33.98,-118.46
60502,0.9628924600499349,1,783,16662,8086,62.2,109764,Aurora,IL,DuPage County,41.77,-88.25
20191,0.9628759333532615,1,784,23482,11527,61.7,111074,Reston,VA,Fairfax County,38.93,-77.35
75094,0.9628300914915796,1,785,15836,6123,56.3,127095,Plano,TX,Collin County,33.02,-96.62
20850,0.9628236129476166,1,786,39710,19232,65.7,104515,Rockville,MD,Montgomery County,39.08,-77.15
60012,0.9628163608240483,1,787,8466,3838,56,128844,Crystal Lake,IL,McHenry County,42.27,-88.31
92618,0.9628042729654087,1,788,26561,14045,66.5,103758,Irvine,CA,Orange County,33.67,-117.73
02476,0.9628010682062127,1,789,13497,7232,69.1,101713,Arlington,MA,Middlesex County,42.41,-71.16
11509,0.9627988362146607,1,790,1848,882,54.6,140714,Atlantic Beach,NY,Nassau County,40.59,-73.73
10913,0.9627932096435914,1,791,4323,1605,56.2,127563,Blauvelt,NY,Rockland County,41.07,-73.95
33327,0.9627796249158809,1,792,15688,6569,64,106526,Fort Lauderdale,FL,Broward County,26.11,-80.42
90212,0.9627652187837246,1,793,10351,5921,67.5,103032,Beverly Hills,CA,Los Angeles County,34.06,-118.4
60585,0.962758482872906,1,794,15269,6955,56.6,125967,Plainfield,IL,Will County,41.66,-88.21
60175,0.9627003899563706,1,795,18956,8020,54.9,138006,Saint Charles,IL,Kane County,41.95,-88.39
03861,0.9624305206354747,1,796,3389,1752,62.4,108462,Lee,NH,Strafford County,43.1,-71.01
05362,0.9624111421961418,1,797,46,23,56.5,125625,Williamsville,VT,Windham County,42.94,-72.65
92808,0.9624111249397489,1,798,15853,7440,57.5,121250,Anaheim,CA,Orange County,33.86,-117.74
84060,0.9624051798649287,1,799,6696,3437,65.2,104645,Park City,UT,Summit County,40.64,-111.49
98117,0.9623382556181285,1,800,26885,14448,67.9,102519,Seattle,WA,King County,47.68,-122.38
22310,0.9622970424148032,1,801,24381,11333,57.4,121584,Alexandria,VA,Fairfax County,38.78,-77.12
37067,0.962193292033532,1,802,21934,10984,65,104699,Franklin,TN,Williamson County,35.92,-86.84
53217,0.9621914594043173,1,803,22222,11668,70.7,100262,Milwaukee,WI,Milwaukee County,43.16,-87.91
78015,0.9621839750589641,1,804,10447,4605,57.4,121287,Boerne,TX,Bexar County,29.75,-98.65
75093,0.9620668509710364,1,805,37367,19443,66.9,102889,Plano,TX,Collin County,33.03,-96.81
60304,0.9620223122137642,1,806,12607,6317,69.5,100842,Oak Park,IL,Cook County,41.87,-87.79
94569,0.9619924941480605,1,807,183,118,54.1,142905,Port Costa,CA,Contra Costa County,38.03,-122.19
07044,0.9619665681391942,1,808,10876,5222,61.1,110745,Verona,NJ,Essex County,40.83,-74.24
64167,0.9619539734355191,1,809,361,130,53.4,156250,Kansas City,MO,Clay County,39.32,-94.49
75034,0.9619335320022406,1,810,66612,33152,58.7,116962,Frisco,TX,Denton County,33.14,-96.81
97221,0.9619130387997807,1,811,9562,5170,72.5,98919,Portland,OR,Multnomah County,45.49,-122.72
63040,0.9618390773948056,1,812,5810,3007,65.5,103911,Grover,MO,St. Louis County,38.57,-90.65
20155,0.9618386992331991,1,813,24795,11168,55.6,128811,Gainesville,VA,Prince William County,38.79,-77.61
10019,0.9618124374641879,1,814,38873,24512,72.2,99063,New York,NY,New York County,40.77,-73.99
21114,0.9617683207490253,1,815,19655,9745,58.6,117250,Crofton,MD,Anne Arundel County,39.01,-76.68
55446,0.9617626596651694,1,816,17005,9096,63.5,106165,Minneapolis,MN,Hennepin County,45.04,-93.49
08807,0.9616681108870928,1,817,30100,13241,57.5,120065,Bridgewater,NJ,Somerset County,40.59,-74.62
10996,0.9616393543362969,1,818,5138,790,70.1,100234,West Point,NY,Orange County,41.39,-73.97
92075,0.9616175195723048,1,819,10619,5488,65.6,103608,Solana Beach,CA,San Diego County,33,-117.26
07738,0.9615761988862827,1,820,4717,2106,55.1,132222,Lincroft,NJ,Monmouth County,40.34,-74.12
20129,0.9615604896497155,1,821,419,236,52.1,215333,Paeonian Springs,VA,Loudoun County,39.16,-77.61
11020,0.9615219728815145,1,822,4543,1901,57.7,118906,Great Neck,NY,Nassau County,40.77,-73.71
11768,0.9614809056180098,1,823,17086,7959,56.9,122080,Northport,NY,Suffolk County,40.9,-73.34
20136,0.9614581804239988,1,824,20076,8673,54.6,135426,Bristow,VA,Prince William County,38.74,-77.55
02032,0.9613735550595438,1,825,3323,1644,57.3,120250,East Walpole,MA,Norfolk County,42.15,-71.21
02053,0.9613486057626592,1,826,9844,4642,59,115432,Medway,MA,Norfolk County,42.16,-71.43
07871,0.9613284443760045,1,827,14996,7041,55,131813,Sparta,NJ,Sussex County,41.04,-74.62
05053,0.9612550243288486,1,828,378,184,67.6,101875,North Pomfret,VT,Windsor County,43.72,-72.49
10708,0.9612227711392167,1,829,17827,9075,62.5,106808,Bronxville,NY,Westchester County,40.94,-73.83
55123,0.9611987812979212,1,830,18874,9562,59.1,115098,Saint Paul,MN,Dakota County,44.81,-93.14
11559,0.9611986047896529,1,831,5903,2677,62.6,106597,Lawrence,NY,Nassau County,40.6,-73.71
11771,0.9611755398911608,1,832,7474,3649,56.6,122589,Oyster Bay,NY,Nassau County,40.86,-73.53
80109,0.9611255510710872,1,833,14987,6933,56.9,120989,Castle Rock,CO,Douglas County,39.36,-104.9
92145,0.9610517144051998,1,834,1460,625,53.8,141691,San Diego,CA,San Diego County,32.93,-117.01
07069,0.9609735715290466,1,835,4725,1968,56.5,122434,Watchung,NJ,Somerset County,40.64,-74.44
03885,0.9609591136277114,1,836,5489,2747,62.7,106250,Stratham,NH,Rockingham County,43.02,-70.91
99587,0.9608980826865525,1,837,1782,854,61.5,108362,Girdwood,AK,Anchorage Municipality,60.9,-148.91
20838,0.9608595792304044,1,838,203,85,59.1,114375,Barnesville,MD,Montgomery County,39.22,-77.39
94118,0.9608509628655311,1,839,35555,17731,67,102021,San Francisco,CA,San Francisco County,37.78,-122.46
55346,0.9606554212782015,1,840,12867,6385,60.9,108866,Eden Prairie,MN,Hennepin County,44.88,-93.48
43017,0.9606260928011382,1,841,29015,14678,67.9,101136,Dublin,OH,Franklin County,40.11,-83.13
08844,0.960576366771298,1,842,30440,13532,56.9,120173,Hillsborough,NJ,Somerset County,40.47,-74.62
94111,0.9605409857367182,1,843,3044,2021,70.1,99464,San Francisco,CA,San Francisco County,37.8,-122.4
12420,0.9605328643838642,1,844,309,142,68,100938,Cragsmoor,NY,Ulster County,41.67,-74.37
29409,0.9604817701683812,1,845,2624,15,64.5,103750,Charleston,SC,Charleston County,32.8,-79.96
53097,0.9604584040225318,1,846,4661,1990,61.6,107667,Mequon,WI,Ozaukee County,43.24,-88.01
92673,0.9604517928508016,1,847,22432,10355,53.4,144331,San Clemente,CA,Orange County,33.48,-117.61
78255,0.9604002208796936,1,848,10137,4358,56.6,120814,San Antonio,TX,Bexar County,29.65,-98.66
30004,0.960388451524804,1,849,45438,21669,61.7,107423,Alpharetta,GA,Fulton County,34.14,-84.29
92662,0.9603094911885419,1,850,2478,1425,72.6,97591,Newport Beach,CA,Orange County,33.61,-117.89
93730,0.9603046953896347,1,851,8495,4166,57.2,118487,Fresno,CA,Fresno County,36.9,-119.75
07878,0.9602596059068272,1,852,599,272,62.2,106481,Mount Tabor,NJ,Morris County,40.87,-74.47
46814,0.9601788607661925,1,853,8524,4235,60.8,108638,Fort Wayne,IN,Allen County,41.05,-85.3
92602,0.9601453641300063,1,854,18248,8862,64.7,103367,Irvine,CA,Orange County,33.74,-117.76
04021,0.9600819286333659,1,855,4601,2240,62.2,106375,Cumberland Center,ME,Cumberland County,43.8,-70.25
21210,0.9600786030794185,1,856,13230,5301,82.6,93203,Baltimore,MD,Baltimore city,39.36,-76.63
40245,0.9599138311247057,1,857,25037,11903,59.2,112655,Louisville,KY,Jefferson County,38.27,-85.45
12054,0.9598264827010179,1,858,13097,6883,67.7,100677,Delmar,NY,Albany County,42.62,-73.83
33957,0.9597920571776903,1,859,6497,3575,63.5,104115,Sanibel,FL,Lee County,26.44,-82.1
07081,0.9597626000172004,1,860,13965,7012,59.8,110547,Springfield,NJ,Union County,40.69,-74.32
95746,0.9597009971497734,1,861,17662,8198,54.4,130063,Granite Bay,CA,Placer County,38.76,-121.16
07675,0.959673359306443,1,862,20774,9849,56.6,119748,Westwood,NJ,Bergen County,41,-74
33076,0.9596666273399632,1,863,24803,11006,56,121458,Pompano Beach,FL,Broward County,26.32,-80.28
78266,0.9596261492591192,1,864,4923,2367,58.3,114003,San Antonio,TX,Comal County,29.66,-98.34
20176,0.9596217488782095,1,865,37338,16989,55.1,125702,Leesburg,VA,Loudoun County,39.18,-77.54
19350,0.9596086246497315,1,866,8899,4148,56.4,120068,Landenberg,PA,Chester County,39.76,-75.78
06482,0.9595502132294467,1,867,8478,3853,58.8,112733,Sandy Hook,CT,Fairfield County,41.4,-73.24
11804,0.9595189234397423,1,868,3769,1703,59.1,112153,Old Bethpage,NY,Nassau County,40.75,-73.45
28277,0.9595081519975663,1,869,51470,26012,66.3,101490,Charlotte,NC,Mecklenburg County,35.05,-80.82
80425,0.9594727073607925,1,870,216,111,54.1,132344,Buffalo Creek,CO,Jefferson County,39.35,-105.21
55391,0.9594584644248503,1,871,12567,6680,62.4,105162,Wayzata,MN,Hennepin County,44.97,-93.51
02129,0.9594528551101735,1,872,15491,8931,63.5,103834,Charlestown,MA,Suffolk County,42.38,-71.06
60134,0.9594465491301405,1,873,21577,10414,59.5,110691,Geneva,IL,Kane County,41.88,-88.31
19343,0.9594349005700014,1,874,6176,2752,55.8,121849,Glenmoore,PA,Chester County,40.09,-75.77
98109,0.9594217285166818,1,875,24731,15090,74.6,95719,Seattle,WA,King County,47.63,-122.34
23113,0.9593954933717811,1,876,19126,9422,63.6,103683,Midlothian,VA,Chesterfield County,37.54,-77.68
11743,0.9593906285473011,1,877,32932,15132,56.5,119133,Huntington,NY,Suffolk County,40.87,-73.4
30022,0.9593886194098189,1,878,50491,23603,64.2,103228,Alpharetta,GA,Fulton County,34.06,-84.27
06830,0.9593436334653692,1,879,19291,9699,61.2,107086,Greenwich,CT,Fairfield County,41.06,-73.63
95051,0.9592915240807792,1,880,44867,20538,58.4,113021,Santa Clara,CA,Santa Clara County,37.35,-121.98
06390,0.9592771312606762,1,881,183,77,52.5,150703,Fishers Island,NY,Suffolk County,41.27,-71.99
07676,0.9592487277264176,1,882,7412,3231,54.4,128203,Township Of Washington,NJ,Bergen County,40.98,-74.06
15222,0.9592191192027286,1,883,4535,2364,75.3,95217,Pittsburgh,PA,Allegheny County,40.45,-79.99
10013,0.959194183217899,1,884,24739,12207,61.8,106056,New York,NY,New York County,40.72,-74
91008,0.9591578520954468,1,885,1044,429,58.5,112813,Duarte,CA,Los Angeles County,34.15,-117.97
11747,0.9591427492979336,1,886,15597,7070,56.2,119876,Melville,NY,Suffolk County,40.78,-73.41
01845,0.9591179977100484,1,887,22985,11136,61.9,105661,North Andover,MA,Essex County,42.7,-71.11
19060,0.9591162129056738,1,888,8553,3797,53.9,132987,Garnet Valley,PA,Delaware County,39.84,-75.49
20769,0.959076302806758,1,889,5487,2148,52.7,145575,Glenn Dale,MD,Prince George's County,38.98,-76.8
11976,0.9590609544754063,1,890,1969,889,57.2,115875,Water Mill,NY,Suffolk County,40.92,-72.34
06437,0.9590345812793606,1,891,17551,8582,60.6,107587,Guilford,CT,New Haven County,41.28,-72.67
39110,0.9590101309388326,1,892,30371,14997,62.9,104012,Madison,MS,Madison County,32.45,-90.1
32081,0.9590021860942466,1,893,8018,3798,57.7,114048,Ponte Vedra,FL,St. Johns County,30.08,-81.4
33156,0.9589610670615627,1,894,25848,10886,60.7,107244,Miami,FL,Miami-Dade County,25.67,-80.3
20005,0.9588235705659262,1,895,12310,8172,75.9,94506,Washington,DC,District of Columbia,38.9,-77.03
08061,0.9588017106568634,1,896,2007,891,52.7,144258,Mount Royal,NJ,Gloucester County,39.8,-75.21
23059,0.9587574253221095,1,897,24690,12255,62.2,104878,Glen Allen,VA,Henrico County,37.7,-77.57
76248,0.9586849050726869,1,898,28081,12896,55.1,123446,Keller,TX,Tarrant County,32.93,-97.22
11777,0.9586766801814747,1,899,7094,3421,60.8,106840,Port Jefferson,NY,Suffolk County,40.94,-73.05
30338,0.9586752947394377,1,900,25736,13891,72.3,96506,Atlanta,GA,DeKalb County,33.94,-84.31
75028,0.9586032177328558,1,901,34345,15966,57.1,115490,Flower Mound,TX,Denton County,33.03,-97.06
78735,0.9586008343781058,1,902,13648,7193,64.4,102551,Austin,TX,Travis County,30.27,-97.87
30319,0.95859401612966,1,903,33384,18519,73.2,95670,Atlanta,GA,DeKalb County,33.87,-84.33
01985,0.9585619527603506,1,904,3406,1596,53.4,135882,West Newbury,MA,Essex County,42.8,-71
55436,0.9585224247673794,1,905,9675,5579,71.5,96960,Minneapolis,MN,Hennepin County,44.9,-93.37
07076,0.9585173794902939,1,906,18716,8576,56.3,117765,Scotch Plains,NJ,Union County,40.63,-74.37
52328,0.9584951359962472,1,907,2130,1034,55.6,120875,Robins,IA,Linn County,42.07,-91.66
48331,0.9584352489076229,1,908,17047,8387,63.5,103177,Farmington,MI,Oakland County,42.5,-83.41
01460,0.9583545900489527,1,909,7581,3440,55.9,119177,Littleton,MA,Middlesex County,42.53,-71.47
03840,0.958275414747299,1,910,3058,1505,60.6,106763,Greenland,NH,Rockingham County,43.03,-70.83
80914,0.9582535242697883,1,911,398,22,53.6,132500,Colorado Springs,CO,El Paso County,38.82,-104.7
21704,0.9581312858792024,1,912,11199,5138,54.2,126514,Frederick,MD,Frederick County,39.35,-77.38
80403,0.9581274958816854,1,913,15059,7879,60.8,106355,Golden,CO,Jefferson County,39.83,-105.29
44023,0.9580918057110726,1,914,13360,6511,57.2,114221,Chagrin Falls,OH,Geauga County,41.38,-81.29
95762,0.9580646456233665,1,915,30422,13770,54,127862,El Dorado Hills,CA,El Dorado County,38.68,-121.05
08801,0.9580544421631199,1,916,7463,2528,55.5,120435,Annandale,NJ,Hunterdon County,40.62,-74.89
92007,0.9580263783333427,1,917,9236,4484,61.3,105469,Cardiff By The Sea,CA,San Diego County,33.01,-117.27
03033,0.957935425788122,1,918,3765,1750,54,127222,Brookline,NH,Hillsborough County,42.73,-71.66
37135,0.9579242801286793,1,919,7703,3857,59,109538,Nolensville,TN,Williamson County,35.94,-86.64
23103,0.9579030518037397,1,920,4370,2012,58,111689,Manakin Sabot,VA,Goochland County,37.64,-77.7
01944,0.9578899103188683,1,921,4231,2106,61.2,105500,Manchester,MA,Essex County,42.56,-70.76
91301,0.95785754964654,1,922,20017,9156,56,117615,Agoura Hills,CA,Los Angeles County,34.12,-118.76
11023,0.957854594365523,1,923,6907,2947,58,111607,Great Neck,NY,Nassau County,40.8,-73.73
45434,0.9578481118772214,1,924,8838,4461,57.6,112507,Dayton,OH,Greene County,39.72,-84.03
72212,0.9577732294737799,1,925,10476,5120,65.6,100750,Little Rock,AR,Pulaski County,34.79,-92.42
18923,0.9577012944626785,1,926,592,294,53.3,133125,Fountainville,PA,Bucks County,40.36,-75.17
48230,0.957668924422634,1,927,12372,6450,67,99668,Grosse Pointe,MI,Wayne County,42.38,-82.91
10605,0.9576446121332507,1,928,14113,6826,58,111201,White Plains,NY,Westchester County,41.02,-73.75
07834,0.9576082637544052,1,929,14048,6918,56.2,116273,Denville,NJ,Morris County,40.89,-74.48
63105,0.957579687656215,1,930,15497,6566,79.2,92614,Saint Louis,MO,St. Louis County,38.64,-90.33
07092,0.9575428151759435,1,931,5346,2428,53.6,129405,Mountainside,NJ,Union County,40.68,-74.36
35763,0.9575298541436795,1,932,12280,6163,60.8,105655,Owens Cross Roads,AL,Madison County,34.6,-86.46
20001,0.9574771422643741,1,933,41233,18764,65.7,100447,Washington,DC,District of Columbia,38.91,-77.02
32814,0.9574407248599561,1,934,6487,3416,70.4,96818,Orlando,FL,Orange County,28.57,-81.32
38120,0.9573826319434218,1,935,11902,6444,66.9,99472,Memphis,TN,Shelby County,35.12,-89.85
22936,0.9573556656203787,1,936,3896,1933,56.8,114063,Earlysville,VA,Albemarle County,38.15,-78.48
05482,0.9573479224291295,1,937,6015,3215,65.7,100341,Shelburne,VT,Chittenden County,44.38,-73.23
08823,0.9573464255600593,1,938,7400,3574,62.9,102851,Franklin Park,NJ,Somerset County,40.44,-74.54
13104,0.9573407260190789,1,939,11835,5994,61.2,105000,Manlius,NY,Onondaga County,43,-75.97
49674,0.9573198719114071,1,940,56,20,60.8,105417,Omena,MI,Leelanau County,45.05,-85.59
08840,0.9573175191251051,1,941,12706,5991,56.2,115785,Metuchen,NJ,Middlesex County,40.54,-74.36
80516,0.957289773799078,1,942,17966,8626,57.4,112113,Erie,CO,Weld County,40.02,-105.04
66223,0.9572834027378101,1,943,18228,9537,69.7,97114,Overland Park,KS,Johnson County,38.86,-94.67
34228,0.9572399654316108,1,944,7071,3820,63.5,102348,Longboat Key,FL,Sarasota County,27.37,-82.62
21774,0.9572269792542765,1,945,9158,4496,55.4,119253,New Market,MD,Frederick County,39.41,-77.27
02543,0.9572164439782236,1,946,748,432,80.3,92188,Woods Hole,MA,Barnstable County,41.52,-70.66
20905,0.9572058584120334,1,947,14567,5884,55.8,117296,Silver Spring,MD,Montgomery County,39.11,-76.99
78258,0.9571953537044289,1,948,32571,15977,61.2,104802,San Antonio,TX,Bexar County,29.63,-98.5
08852,0.9571530947635493,1,949,13267,6393,63.9,101928,Monmouth Junction,NJ,Middlesex County,40.38,-74.54
01929,0.9571109393610278,1,950,2811,1439,58.4,109327,Essex,MA,Essex County,42.63,-70.77
08560,0.9571008951526561,1,951,3147,1407,58.1,109973,Titusville,NJ,Mercer County,40.31,-74.86
27614,0.9570958750206392,1,952,24535,12519,62.6,102950,Raleigh,NC,Wake County,35.95,-78.62
77459,0.9570931480170692,1,953,48678,21160,57.3,112161,Missouri City,TX,Fort Bend County,29.57,-95.53
78248,0.9570771932466631,1,954,11161,5543,61.7,104132,San Antonio,TX,Bexar County,29.59,-98.53
40026,0.9570418772933177,1,955,4441,1918,58.5,109000,Goshen,KY,Oldham County,38.4,-85.59
98116,0.9569598887061284,1,956,21227,12161,65,100711,Seattle,WA,King County,47.57,-122.4
08736,0.9569322641748528,1,957,10297,4731,57,112836,Manasquan,NJ,Monmouth County,40.11,-74.03
98121,0.9569102223341432,1,958,15908,11339,72.4,94813,Seattle,WA,King County,47.62,-122.35
08691,0.9568947758878109,1,959,12390,5867,55.2,119659,Trenton,NJ,Mercer County,40.21,-74.59
55419,0.9567796648817035,1,960,20287,10579,65.3,100306,Minneapolis,MN,Hennepin County,44.91,-93.29
10036,0.9567734875850976,1,961,25186,15624,74,93707,New York,NY,New York County,40.76,-73.99
15228,0.956766506140439,1,962,13332,7224,72,95000,Pittsburgh,PA,Allegheny County,40.37,-80.04
03856,0.9566812491918613,1,963,1150,540,54.3,122750,Newfields,NH,Rockingham County,43.04,-70.97
29492,0.956673381261524,1,964,9158,4836,61.7,103822,Charleston,SC,Berkeley County,32.9,-79.91
03753,0.9566253152969677,1,965,2336,1159,60.8,104735,Grantham,NH,Sullivan County,43.48,-72.13
78717,0.9566211126250583,1,966,19276,9846,61.3,104167,Austin,TX,Williamson County,30.49,-97.75
46032,0.9566163247148265,1,967,35298,18668,68.9,97184,Carmel,IN,Hamilton County,39.96,-86.17
02056,0.956553221033991,1,968,8786,3183,52.1,139137,Norfolk,MA,Norfolk County,42.11,-71.31
77381,0.9565497534845633,1,969,28684,14205,61.9,103439,Spring,TX,Montgomery County,30.18,-95.5
60607,0.956505360667111,1,970,26018,12663,78.3,92240,Chicago,IL,Cook County,41.87,-87.65
68526,0.9563957953734881,1,971,4474,2262,57.2,111296,Lincoln,NE,Lancaster County,40.73,-96.58
20158,0.9563946342645593,1,972,3207,1367,51.4,146096,Hamilton,VA,Loudoun County,39.13,-77.66
20151,0.9563817250014744,1,973,16745,6792,54.5,121086,Chantilly,VA,Fairfax County,38.9,-77.45
80439,0.9563556397407318,1,974,19203,9922,64.4,100775,Evergreen,CO,Jefferson County,39.63,-105.34
11557,0.9562453644696968,1,975,6019,2643,55.5,116754,Hewlett,NY,Nassau County,40.64,-73.69
11217,0.9562453511576414,1,976,32821,16856,66.3,99085,Brooklyn,NY,Kings County,40.68,-73.98
07648,0.9562381508032524,1,977,4689,2111,53.7,125417,Norwood,NJ,Bergen County,40.99,-73.95
31411,0.9562312117600564,1,978,7374,3927,68.5,97121,Savannah,GA,Chatham County,31.94,-81.03
10986,0.9562036907671383,1,979,1396,592,53.4,126959,Tomkins Cove,NY,Rockland County,41.27,-73.98
78256,0.9561255690917159,1,980,7405,3577,63.8,101140,San Antonio,TX,Bexar County,29.62,-98.62
06477,0.9560470480539562,1,981,10912,4959,57.5,109538,Orange,CT,New Haven County,41.27,-73.02
48085,0.9560065872295045,1,982,19461,8550,58.9,107152,Troy,MI,Oakland County,42.58,-83.14
91604,0.9558868263643093,1,983,25347,14437,65.4,99745,Studio City,CA,Los Angeles County,34.13,-118.39
20132,0.9558366531472908,1,984,12308,5411,52.5,132998,Purcellville,VA,Loudoun County,39.13,-77.71
21057,0.9558082496130322,1,985,3306,1584,54.4,120357,Glen Arm,MD,Baltimore County,39.44,-76.5
35226,0.9557369116732688,1,986,25904,13410,62.2,102616,Birmingham,AL,Jefferson County,33.4,-86.85
80116,0.9556931174061943,1,987,3271,1436,56,113750,Franktown,CO,Douglas County,39.38,-104.75
83014,0.9556787842439479,1,988,2827,1399,62.4,102292,Wilson,WY,Teton County,43.5,-110.87
60069,0.9556317161921057,1,989,6547,3265,63.1,101273,Lincolnshire,IL,Lake County,42.19,-87.91
95819,0.9556240765392149,1,990,15734,7806,64,100611,Sacramento,CA,Sacramento County,38.56,-121.43
18938,0.9556172716028251,1,991,11587,6060,59.2,106464,New Hope,PA,Bucks County,40.36,-74.95
90293,0.9555580599788251,1,992,11655,6655,64.7,100042,Playa Del Rey,CA,Los Angeles County,33.94,-118.44
21046,0.955553250867863,1,993,12214,6295,62.5,101990,Columbia,MD,Howard County,39.17,-76.84
18929,0.955537503174172,1,994,7116,3154,53,127188,Jamison,PA,Bucks County,40.25,-75.08
03215,0.9555223007826397,1,995,160,86,66.7,98125,Waterville Valley,NH,Grafton County,43.95,-71.5
08551,0.9555085277136455,1,996,4179,1800,51.9,136765,Ringoes,NJ,Hunterdon County,40.44,-74.82
08055,0.9554484084032365,1,997,21123,9994,56.3,112267,Medford,NJ,Burlington County,39.86,-74.82
18602,0.9554082833389275,1,998,224,111,53,126875,Bear Creek,PA,Luzerne County,41.18,-75.76
08853,0.9554006609424299,1,999,4108,1806,52.6,130352,Neshanic Station,NJ,Somerset County,40.53,-74.74
06033,0.9553841381900957,1,1000,22143,11410,59.4,105930,Glastonbury,CT,Hartford County,41.7,-72.6
98005,0.9552224368877718,1,1001,15006,7761,63,101134,Bellevue,WA,King County,47.62,-122.16
68135,0.9551241843941429,1,1002,19214,9448,58.4,106875,Omaha,NE,Douglas County,41.21,-96.19
63017,0.9551042591736125,1,1003,33290,16834,65.2,99099,Chesterfield,MO,St. Louis County,38.65,-90.53
11507,0.9550652355603764,1,1004,5906,2325,54.4,118807,Albertson,NY,Nassau County,40.77,-73.64
27502,0.9550449188661859,1,1005,26689,13237,60.6,103673,Apex,NC,Wake County,35.72,-78.84
01093,0.9549416462405402,1,1006,302,141,60.5,103750,Whately,MA,Franklin County,42.44,-72.65
94965,0.9548808302647738,1,1007,9705,5824,62.2,101947,Sausalito,CA,Marin County,37.84,-122.53
52411,0.9548167326155628,1,1008,5611,2708,53.7,122258,Cedar Rapids,IA,Linn County,42.05,-91.73
07435,0.9547534046016186,1,1009,2157,994,53.2,124500,Newfoundland,NJ,Passaic County,41.07,-74.42
06905,0.9547299694301976,1,1010,16371,7551,54.8,116567,Stamford,CT,Fairfield County,41.09,-73.55
02038,0.9546432062448325,1,1011,24357,11288,56,111935,Franklin,MA,Norfolk County,42.08,-71.38
20170,0.9546108110597176,1,1012,32182,13308,54.1,119911,Herndon,VA,Fairfax County,38.96,-77.38
08247,0.9545776196152276,1,1013,917,485,62.3,101484,Stone Harbor,NJ,Cape May County,39.04,-74.76
90403,0.9544935661770382,1,1014,21636,13458,75.1,92096,Santa Monica,CA,Los Angeles County,34.03,-118.49
53045,0.9544848901543103,1,1015,16766,8482,63.1,100438,Brookfield,WI,Waukesha County,43.06,-88.15
80016,0.9544731686242618,1,1016,37385,17545,55.6,113243,Aurora,CO,Arapahoe County,39.6,-104.71
98027,0.9544520305256252,1,1017,22405,11304,57.1,108565,Issaquah,WA,King County,47.5,-122
98024,0.9544383861400582,1,1018,4598,2153,52.3,129053,Fall City,WA,King County,47.58,-121.88
20852,0.9544191960420089,1,1019,37847,20478,70.1,94378,Rockville,MD,Montgomery County,39.05,-77.12
02113,0.954417879625544,1,1020,7131,4370,77.3,91212,Boston,MA,Suffolk County,42.37,-71.06
16827,0.9543922854324823,1,1021,3698,1867,64.5,99225,Boalsburg,PA,Centre County,40.77,-77.79
60137,0.9543665147311522,1,1022,28738,14186,60.6,103217,Glen Ellyn,IL,DuPage County,41.86,-88.06
13341,0.9542470339125837,1,1023,113,53,55.6,112891,Franklin Springs,NY,Oneida County,43.04,-75.4
92024,0.9542416223069062,1,1024,40535,19815,60.4,103417,Encinitas,CA,San Diego County,33.05,-117.25
01701,0.9542412653460315,1,1025,26166,12587,58.6,105940,Framingham,MA,Middlesex County,42.3,-71.43
10994,0.9541430991343662,1,1026,6006,2684,50.5,145313,West Nyack,NY,Rockland County,41.09,-73.96
19086,0.9541150910181073,1,1027,8897,4153,59.2,104844,Wallingford,PA,Delaware County,39.89,-75.37
48324,0.9541090172598596,1,1028,13512,6400,56.8,108722,West Bloomfield,MI,Oakland County,42.59,-83.39
85259,0.9540915138512036,1,1029,18643,9465,62.6,100720,Scottsdale,AZ,Maricopa County,33.6,-111.81
96825,0.9540855091185281,1,1030,23618,10469,55.6,112713,Honolulu,HI,Honolulu County,21.29,-157.69
02139,0.9540228472014914,1,1031,32557,14094,76.5,91250,Cambridge,MA,Middlesex County,42.37,-71.11
37014,0.9539699642372967,1,1032,2011,906,52.3,127500,Arrington,TN,Williamson County,35.88,-86.63
03847,0.9539541248382628,1,1033,357,201,100,88285,Kearsarge,NH,Carroll County,44.07,-71.12
11570,0.9538816006445032,1,1034,20846,10100,57.4,107111,Rockville Centre,NY,Nassau County,40.66,-73.63
02066,0.953864983721527,1,1035,13696,6650,54.9,114766,Scituate,MA,Plymouth County,42.18,-70.73
20721,0.9538593014369393,1,1036,23734,9682,52.9,123923,Bowie,MD,Prince George's County,38.92,-76.79
48236,0.9538233139633074,1,1037,22602,11168,60.2,103302,Grosse Pointe,MI,Wayne County,42.43,-82.89
10607,0.9538195333335052,1,1038,5566,2242,50.8,139135,White Plains,NY,Westchester County,41.04,-73.81
94946,0.953729246885195,1,1039,679,319,56.6,108750,Nicasio,CA,Marin County,38.07,-122.68
61705,0.9536704612476419,1,1040,9233,4641,58.4,105377,Bloomington,IL,McLean County,40.41,-88.9
77079,0.9536482562107196,1,1041,23901,12496,64.3,98774,Houston,TX,Harris County,29.78,-95.6
77027,0.9536295956374741,1,1042,14141,8915,75.7,91296,Houston,TX,Harris County,29.74,-95.45
02114,0.9535644522507087,1,1043,12335,7196,81.5,89452,Boston,MA,Suffolk County,42.36,-71.07
07006,0.9535257816540101,1,1044,20500,9579,54.9,114096,Caldwell,NJ,Essex County,40.85,-74.28
14618,0.9534852730047171,1,1045,18480,8440,70.7,93309,Rochester,NY,Monroe County,43.11,-77.55
11732,0.9534727300702235,1,1046,2911,1422,55.7,111000,East Norwich,NY,Nassau County,40.84,-73.54
06470,0.9534316800631115,1,1047,12695,5896,54.1,116959,Newtown,CT,Fairfield County,41.41,-73.31
91381,0.9533579336235278,1,1048,14561,6784,53.1,121719,Stevenson Ranch,CA,Los Angeles County,34.37,-118.61
